X,Y,OBJECTID,BBL_LICENSE_FACT_ID,LICENSESTATUS,LICENSECATEGORY,CUST_NUM,TRADE_NAME,LICENSE_START_DATE,LICENSE_EXPIRATION_DATE,LICENSE_ISSUE_DATE,AGENT_PHONE,LASTMODIFIEDDATE,CITY,STATE,SITEADDRESS,LATITUDE,LONGITUDE,XCOORD,YCOORD,ZIPCODE,MARADDRESSREPOSITORYID,DCSTATADDRESSKEY,DCSTATLOCATIONKEY,WARD,ANC,SMD,DISTRICT,PSA,NEIGHBORHOODCLUSTER,HOTSPOT2006NAME,HOTSPOT2005NAME,HOTSPOT2004NAME,BUSINESSIMPROVEMENTDISTRICT
-77.080700256278874,38.946585641873675,18145077,313582,ACTIVE,Charitable Solicitation,400214000099,YUMA STUDY CENTER INC,2014-01-01T00:00:00.000Z,2017-12-31T00:00:00.000Z,2014-01-02T00:00:00.000Z,2023866905,2017-06-20T15:10:12.000Z,WASHINGTON,DC,4101 YUMA STREET NW,38.9465778483,-77.0806979448,393004.52,142078.93,20016,264421,106993,106993,3,3E,3E03,SECOND,202,11,NONE,NONE,NONE,NONE
-77.098453473929979,38.948639980001154,18144606,313735,ACTIVE,Charitable Solicitation,400214000368,,2014-07-01T00:00:00.000Z,2018-06-30T00:00:00.000Z,2014-08-06T00:00:00.000Z,2023681083,2017-06-20T15:10:13.000Z,WASHINGTON,DC,4940 BUTTERWORTH PLACE NW,38.94863252,-77.0984511572,391465.79,142308.49,20016,269305,111851,111851,3,3E,3E02,SECOND,202,11,NONE,NONE,NONE,NONE
-77.027725931854548,38.9606764434455,18141854,312155,ACTIVE,Gasoline Dealer,69004465,LP MAPP DOWNSTREAM MARKETING LLC,2009-06-01T00:00:00.000Z,2011-05-31T00:00:00.000Z,2014-09-19T00:00:00.000Z,2028554455,2017-06-20T15:10:12.000Z,WASHINGTON,DC,5831 GEORGIA AVENUE NW,38.9606689783,-77.0277236361,397597.19,143640.41,20011,285276,124095,124095,4,4B,4B05,FOURTH,403,18,NONE,NONE,NONE,NONE
-77.040626831778269,38.905454639305702,18152703,324033,ACTIVE,General Business Licenses,69011131,BURBERRY LIMITED ,2011-12-01T00:00:00.000Z,2013-11-30T00:00:00.000Z,2014-02-03T00:00:00.000Z,2029999999,2017-06-20T15:10:18.000Z,WASHINGTON,DC,1155 CONNECTICUT AVENUE NW,38.9054471858,-77.0406245354,396476.34,137510.73,20036,243304,86234,86234,2,2B,2B05,SECOND,207,6,NONE,NONE,NONE,GOLDEN TRIANGLE BID
-76.971873602506605,38.874560127403896,18159747,325260,ACTIVE,Cigarette Retail,53000500,GOOD HOPE INTERNATIONAL INC,2016-03-01T00:00:00.000Z,2018-02-28T00:00:00.000Z,2014-02-27T00:00:00.000Z,9999999999,2017-06-20T15:10:18.000Z,WASHINGTON,DC,2300 PENNSYLVANIA AVENUE SE,38.8745526776,-76.9718713291,402440.86,134080.79,20020,48967,20496,20496,7,7A,7A07,SIXTH,607,34,NONE,NONE,NONE,NONE
-77.020780179618413,38.94648012992446,18161228,331640,ACTIVE,Home Improvement Salesman,68002008,GEORGE U STRONG ,2016-04-01T00:00:00.000Z,2018-03-31T00:00:00.000Z,2014-03-21T00:00:00.000Z,,2017-06-20T15:10:22.000Z,WASHINGTON,DC,537 BUCHANAN STREET NW,38.9464726674,-77.0207778869,398198.82,142064.33,20011,247355,90231,90231,4,4C,4C09,FOURTH,407,18,NONE,NONE,NONE,NONE
-76.9659239866414,38.851308534822579,18163985,332491,ACTIVE,Apartment,39807387,RICHARD B SHINE JR,2003-11-01T00:00:00.000Z,2004-10-31T00:00:00.000Z,2014-09-25T00:00:00.000Z,,2017-06-20T15:10:22.000Z,WASHINGTON,DC,3125 BUENA VISTA TERRACE SE,38.8513010895,-76.9659217165,402958.1,131499.87,20020,39877,27124,27124,8,8B,8B02,SEVENTH,702,36,NONE,NONE,NONE,NONE
-77.009787036263134,38.956880718035499,18163190,328795,ACTIVE,Home Improvement Contractor,39104184,J & L ORNAMENTAL IRON WRKS INC,2016-01-01T00:00:00.000Z,2017-12-31T00:00:00.000Z,2014-01-06T00:00:00.000Z,2028293050,2017-06-20T15:10:20.000Z,WASHINGTON,DC,1 KENNEDY STREET NW,38.956873253,-77.0097847462,399151.91,143218.73,20011,245832,88707,88707,4,4B,4B08,FOURTH,406,17,NONE,NONE,NONE,NONE
-77.016950156683933,38.953541164801727,18163357,331468,ACTIVE,Home Improvement Salesman,70105659,W. GILL CONSTRUCTION COMPANY,2012-07-01T00:00:00.000Z,2014-06-30T00:00:00.000Z,2014-06-20T00:00:00.000Z,2027234251,2017-06-20T15:10:22.000Z,WASHINGTON,DC,5207 KANSAS AVENUE NW,38.9535337007,-77.0169478647,398530.98,142848.1,20011,243679,86562,86562,4,4D,4D02,FOURTH,403,18,NONE,NONE,NONE,NONE
-76.979856183906108,38.903273369871016,18167118,334225,ACTIVE,Apartment,500114000467,,2012-12-01T00:00:00.000Z,2014-11-30T00:00:00.000Z,2014-05-23T00:00:00.000Z,2022764183,2017-06-20T15:10:23.000Z,WASHINGTON,DC,1019 17TH PLACE NE,38.9032659146,-76.9798539063,401747.47,137268,20002,75491,48983,48983,5,5B,5B10,FIFTH,507,23,NONE,NONE,NONE,NONE
-76.943133576659818,38.883225745303911,18168769,336586,ACTIVE,Apartment,66006010,HOME REALTY,2006-09-01T00:00:00.000Z,2008-08-31T00:00:00.000Z,2014-04-30T00:00:00.000Z,,2017-06-20T15:10:24.000Z,WASHINGTON,DC,445 BURBANK STREET SE,38.8832182927,-76.9431313116,404934.17,135043.9,20019,21029,11220,11220,7,7A,7A02,SIXTH,603,33,NONE,NONE,NONE,NONE
-76.965127582872753,38.85107921512072,18169618,334580,ACTIVE,Apartment,500114000590,KES PROPERTIES LLC,2014-08-01T00:00:00.000Z,2018-07-31T00:00:00.000Z,2014-08-06T00:00:00.000Z,2024652627,2017-06-20T15:10:23.000Z,WASHINGTON,DC,3134 BUENA VISTA TERRACE SE,38.8510717698,-76.965125313,403027.24,131474.44,20020,39615,26344,26344,8,8B,8B04,SEVENTH,702,36,NONE,NONE,NONE,NONE
-77.002458518196875,38.901084157758994,18169881,337196,ACTIVE,Apartment,68003389,"BROADWAY CAPITOL, LLC",2010-05-01T00:00:00.000Z,2012-04-30T00:00:00.000Z,2014-04-15T00:00:00.000Z,2024083121,2017-06-20T15:10:24.000Z,WASHINGTON,DC,225 I STREET NE,38.9010767037,-77.0024562338,399786.94,137024.79,20002,301228,405796,349145,6,6C,6C05,FIRST,104,25,NONE,NONE,NONE,NONE
-77.003258356648558,38.901086660515155,18169882,337197,ACTIVE,Apartment,68003390,"BROADWAY CAPITOL, LLC",2010-05-01T00:00:00.000Z,2012-04-30T00:00:00.000Z,2014-04-15T00:00:00.000Z,2024083121,2017-06-20T15:10:24.000Z,WASHINGTON,DC,201 I STREET NE,38.9010792065,-77.003256072,399717.56,137025.07,20002,301222,362508,347722,6,6C,6C05,FIRST,104,25,NONE,NONE,NONE,NONE
-77.009966193826045,38.91055225586279,18170250,337658,ACTIVE,One Family Rental,500512000915,,2016-02-01T00:00:00.000Z,2018-01-31T00:00:00.000Z,2014-07-25T00:00:00.000Z,,2017-06-20T15:10:25.000Z,WASHINGTON,DC,23 BATES STREET NW,38.9105448002,-77.0099639066,399135.82,138075.87,20001,236822,80145,80145,5,5C,5C01,FIFTH,501,21,NONE,NONE,NORTH CAPITOL ST,NONE
-77.005885505466509,38.840399899753336,18170457,336916,ACTIVE,Apartment,68006407, WALTER G THOMPSON SR,2008-10-01T00:00:00.000Z,2010-09-30T00:00:00.000Z,2014-03-04T00:00:00.000Z,2026690793,2017-06-20T15:10:24.000Z,WASHINGTON,DC,3517 BROTHERS PLACE SE,38.8403924581,-77.0058832238,399489.24,130288.4,20032,33630,17445,17445,8,8C,8C04,SEVENTH,707,39,NONE,NONE,NONE,NONE
-76.9633818880626,38.925241694643653,18171074,337714,ACTIVE,One Family Rental,500511009103,SAN JUAN BAILEY-WILLIAMS,2016-10-01T00:00:00.000Z,2018-09-30T00:00:00.000Z,2014-09-06T00:00:00.000Z,,2017-06-20T15:10:25.000Z,WASHINGTON,DC,3134 APPLE ROAD NE,38.9252342343,-76.9633796142,403175.47,139707.11,20018,287610,126216,126216,5,5A,5A12,FIFTH,503,24,NONE,NONE,NONE,NONE
-76.9873875206207,38.834986636520064,18173102,339198,ACTIVE,One Family Rental,500513000685,FOCUSWORKS LLC,2012-12-01T00:00:00.000Z,2014-11-30T00:00:00.000Z,2014-11-28T00:00:00.000Z,2025295399,2017-06-20T15:10:25.000Z,WASHINGTON,DC,1142 BARNABY TERRACE SE,38.8349791953,-76.9873852449,401095.25,129687.55,20032,72957,46625,46625,8,8E,8E04,SEVENTH,706,39,NONE,NONE,NONE,NONE
-76.939663587060309,38.897686774255426,18173288,338547,ACTIVE,One Family Rental,500512002820,,2016-07-01T00:00:00.000Z,2018-06-30T00:00:00.000Z,2014-04-23T00:00:00.000Z,2026410827,2017-06-20T15:10:25.000Z,WASHINGTON,DC,4274 FOOTE STREET NE,38.8976793186,-76.9396613222,405234.18,136649.38,20019,24218,13770,13770,7,7D,7D06,SIXTH,602,30,NONE,NONE,NONE,NONE
-77.031511135603353,38.917979769341791,18173751,342031,ACTIVE,One Family Rental,500515000327,V STREET PROPERTY,2009-11-01T00:00:00.000Z,2011-10-31T00:00:00.000Z,2014-11-03T00:00:00.000Z,,2017-06-20T15:10:27.000Z,WASHINGTON,DC,1390 V STREET NW,38.917972313,-77.0315088413,397267.49,138900.81,20009,297785,133236,133236,1,1B,1B02,THIRD,305,3,NONE,NONE,NONE,NONE
-77.02457037914013,38.905391647089218,18175179,340788,ACTIVE,One Family Rental,500514900921,"Attache Corporate Housing; Brittany Dean",2015-12-01T00:00:00.000Z,2017-11-30T00:00:00.000Z,2014-11-24T00:00:00.000Z,202-290-9852,2017-06-20T15:10:26.000Z,WASHINGTON,DC,910 M STREET NW,38.905384193,-77.0245680877,397869.03,137503.24,20001,300398,164445,164445,2,2C,2C03,THIRD,307,8,NONE,NONE,NONE,NONE
-77.036917355663917,38.917491826485353,18193884,350808,ACTIVE,One Family Rental,65005950,AMY PARO,2009-11-01T00:00:00.000Z,2011-10-31T00:00:00.000Z,2014-12-19T00:00:00.000Z,7032473350,2017-06-20T15:10:31.000Z,WASHINGTON,DC,2008 16TH STREET NW,38.9174843704,-77.0369150597,396798.63,138846.82,20009,279511,121624,121624,1,1C,1C08,THIRD,301,6,NONE,NONE,NONE,NONE
-76.986598106574348,38.880353522358959,18193545,352157,ACTIVE,One Family Rental,69003683,,2009-05-01T00:00:00.000Z,2011-04-30T00:00:00.000Z,2014-11-21T00:00:00.000Z,2025473511,2017-06-20T15:10:32.000Z,WASHINGTON,DC,1391 PENNSYLVANIA AVENUE SE,38.8803460719,-76.9865958283,401163.05,134723.61,20003,302637,362299,347674,6,6B,6B07,FIRST,106,26,NONE,NONE,NONE,CAPITOL HILL BID
-77.023736096598256,38.93402722291588,18196979,357226,ACTIVE,Barber Shop,41000843,JOHN D MINOR JR,2004-02-20T00:00:00.000Z,2006-02-28T00:00:00.000Z,2014-06-04T00:00:00.000Z,9999999999,2017-06-20T15:10:34.000Z,WASHINGTON,DC,3545 GEORGIA AVENUE NW,38.934019763,-77.0237338037,397942.22,140682.01,20010,284751,123560,123560,1,1A,1A08,FOURTH,409,2,NONE,NONE,GEORGIA AVE NW,NONE
-76.993968377950367,38.839195642578609,18200034,359216,ACTIVE,Grocery Store,70109821,RAM SERVICES INC/RAM GROCERY STORE,2010-12-01T00:00:00.000Z,2012-11-30T00:00:00.000Z,2014-08-19T00:00:00.000Z,2025488000,2017-06-20T15:10:36.000Z,WASHINGTON,DC,3509 WHEELER ROAD SE,38.8391882007,-76.9939661,400523.85,130154.72,20032,147495,56764,56764,8,8E,8E06,SEVENTH,705,39,NONE,NONE,NONE,NONE
-76.974486291198474,38.871804606512086,18206337,359736,ACTIVE,Restaurant,70110035,COMPASS GROUP USA INC,2016-12-01T00:00:00.000Z,2018-11-30T00:00:00.000Z,2014-10-24T00:00:00.000Z,8009257562,2017-06-20T15:10:36.000Z,WASHINGTON,DC,2200 MINNESOTA AVENUE SE,38.8717971573,-76.9744840172,402214.23,133774.84,20020,294539,131274,131274,8,8A,8A01,SIXTH,607,34,NONE,NONE,NONE,NONE
-77.0319237017804,38.930821739088231,18206355,359258,ACTIVE,Grocery Store,930814000020,GIANT OF MARYLAND LLC,2013-04-01T00:00:00.000Z,2023-03-31T00:00:00.000Z,2014-03-28T00:00:00.000Z,2028574405,2017-06-20T15:10:36.000Z,WASHINGTON,DC,1345 PARK ROAD NW,38.9308142802,-77.0319214066,397232.21,140326.39,20010,297595,133693,133693,1,1A,1A05,THIRD,302,2,NONE,NONE,NONE,NONE
-77.033652397374013,38.903427454583834,18206788,363002,CANCELLED,Charitable Solicitation,400212000378,BERMAN & COMPANY,2012-08-01T00:00:00.000Z,2014-07-31T00:00:00.000Z,2014-06-23T00:00:00.000Z,2027859500,2017-06-20T15:10:38.000Z,WASHINGTON,DC,1090 VERMONT AVENUE NW,38.9034200012,-77.0336501033,397081.2,137285.45,20005,240259,83557,83557,2,2F,2F03,SECOND,207,8,NONE,NONE,NONE,DOWNTOWN BID
-76.997499943272857,38.923907596754255,18206791,363344,CANCELLED,Charitable Solicitation,67006205,THE ACADEMY OF HOPE,2013-11-01T00:00:00.000Z,2015-10-31T00:00:00.000Z,2014-10-09T00:00:00.000Z,2022696623,2017-06-20T15:10:38.000Z,WASHINGTON,DC,601 EDGEWOOD STREET NE,38.9239001379,-76.997497659,400216.99,139558.38,20017,289571,128466,128466,5,5C,5C08,FIFTH,502,21,NONE,NONE,NONE,NONE
-76.994510413017196,38.882912454671128,18206794,363349,CANCELLED,Charitable Solicitation,68000783,FRIENDS OF KANG YUN FOUNDATION,2012-02-01T00:00:00.000Z,2014-01-31T00:00:00.000Z,2014-01-16T00:00:00.000Z,2022902706,2017-06-20T15:10:38.000Z,WASHINGTON,DC,806 E STREET SE,38.882905004,-76.9945081322,400476.5,135007.6,20003,79819,52220,52220,6,6B,6B04,FIRST,107,26,NONE,NONE,NONE,CAPITOL HILL BID
-77.007307749282532,38.912847957942184,18206798,363355,CANCELLED,Charitable Solicitation,68003446,NEIGHBORS OF SEATON PLACE,2012-05-01T00:00:00.000Z,2014-04-30T00:00:00.000Z,2014-03-05T00:00:00.000Z,2022345399,2017-06-20T15:10:38.000Z,WASHINGTON,DC,40 R STREET NE,38.9128405017,-77.0073054627,399366.41,138330.69,20002,28518,16774,16774,5,5C,5C02,FIFTH,502,21,NONE,NONE,NONE,NONE
-77.02328617914921,38.896986480914016,18206802,363732,CANCELLED,General Business Licenses,400313900175,"Sharp Shooter Spectrum Venture, LLC; Donna",2012-10-01T00:00:00.000Z,2014-09-30T00:00:00.000Z,2014-09-24T00:00:00.000Z,202-572-3100,2017-06-20T15:10:38.000Z,WASHINGTON,DC,800 F STREET NW,38.8969790285,-77.0232838887,397980.18,136570.17,20004,238378,81670,81670,2,2C,2C03,FIRST,102,8,NONE,NONE,NONE,DOWNTOWN BID
-76.998381608335265,38.906920504757409,18206804,363734,CANCELLED,General Business Licenses,400313900293,"N T Joes Wholesale Inc; Hai Ngo",2012-11-01T00:00:00.000Z,2014-10-31T00:00:00.000Z,2014-09-10T00:00:00.000Z,202-544-9917,2017-06-20T15:10:38.000Z,WASHINGTON,DC,521 MORSE STREET NE,38.9069130494,-76.9983793249,400140.57,137672.67,20002,150946,59376,59376,5,5B,5B06,FIFTH,506,23,NONE,NONE,NONE,NONE
-77.013924790750579,38.96978498068647,18206827,362662,CANCELLED,Solid Waste Vehicle,302012000052,URBAN SERVICE SYSTEMS CORPORATION,2012-03-01T00:00:00.000Z,2014-02-28T00:00:00.000Z,2014-03-11T00:00:00.000Z,2025432000,2017-06-20T15:10:38.000Z,WASHINGTON,DC,212 VAN BUREN STREET NW,38.9697775132,-77.0139224987,398793.49,144651.27,20012,245457,88390,88390,4,4B,4B07,FOURTH,406,19,NONE,NONE,NONE,NONE
-77.013924790750579,38.96978498068647,18206828,362663,CANCELLED,Solid Waste Vehicle,302012000063,URBAN SERVICE SYSTEMS CORPORATION,2012-04-01T00:00:00.000Z,2014-03-31T00:00:00.000Z,2014-03-24T00:00:00.000Z,2025432000,2017-06-20T15:10:38.000Z,WASHINGTON,DC,212 VAN BUREN STREET NW,38.9697775132,-77.0139224987,398793.49,144651.27,20012,245457,88390,88390,4,4B,4B07,FOURTH,406,19,NONE,NONE,NONE,NONE
-77.030007354846148,38.931658308011421,18207855,363493,CANCELLED,General Business Licenses,400311005066,ADERA AND ASSOCIATES LLC,2013-06-01T00:00:00.000Z,2015-05-31T00:00:00.000Z,2014-02-28T00:00:00.000Z,,2017-06-20T15:10:38.000Z,WASHINGTON,DC,3406 13TH STREET NW,38.9316508488,-77.0300050602,397398.4,140419.2,20010,284661,123164,123164,1,1A,1A06,THIRD,302,2,NONE,NONE,NONE,NONE
-76.999585749427382,38.843679753607312,18208021,363712,CANCELLED,General Business Licenses,400313002017,BABA LLC,2013-08-01T00:00:00.000Z,2015-07-31T00:00:00.000Z,2014-11-07T00:00:00.000Z,2022994475,2017-06-20T15:10:38.000Z,WASHINGTON,DC,3109 MARTIN LUTHER KING JR AVENUE SE,38.8436723111,-76.9995834694,400036.16,130652.47,20032,40480,26147,26147,8,8C,8C03,SEVENTH,707,39,NONE,NONE,NONE,NONE
-76.989923354463571,38.900414788526561,18208104,363716,CANCELLED,General Business Licenses,400313002105,RASO CORPORATION,2013-09-01T00:00:00.000Z,2015-08-31T00:00:00.000Z,2014-10-08T00:00:00.000Z,2022791844,2017-06-20T15:10:38.000Z,WASHINGTON,DC,1204 H STREET NE,38.9004073342,-76.989921074,400874.28,136950.53,20002,72194,45696,45696,6,6A,6A01,FIRST,104,25,NONE,NONE,NONE,NONE
-77.07263069182612,38.9428755557568,18208105,363717,CANCELLED,General Business Licenses,400313002106,MODULIZE LLC,2013-09-01T00:00:00.000Z,2015-08-31T00:00:00.000Z,2014-12-22T00:00:00.000Z,2027013687,2017-06-20T15:10:38.000Z,WASHINGTON,DC,4116 37TH STREET NW,38.9428680959,-77.0726283834,393703.72,141666.49,20008,222904,65629,65629,3,3F,3F06,SECOND,202,11,NONE,NONE,NONE,NONE
-77.053969818077277,38.927141218306865,18208108,363721,CANCELLED,General Business Licenses,400313900014,"Energy Markets Group Inc; Dr. Ahmad Ghamarian",2012-10-01T00:00:00.000Z,2014-09-30T00:00:00.000Z,2014-10-21T00:00:00.000Z,202-236-9766,2017-06-20T15:10:38.000Z,WASHINGTON,DC,2818 CONNECTICUT AVENUE NW,38.9271337609,-77.0539675163,395320.43,139918.72,20008,219969,63343,63343,3,3C,3C02,SECOND,204,15,NONE,NONE,NONE,NONE
-77.000183990606502,38.952905599037557,18208111,363727,CANCELLED,General Business Licenses,400313900092,"MEGASETH; Seth Longhurst",2012-10-01T00:00:00.000Z,2014-09-30T00:00:00.000Z,2014-08-08T00:00:00.000Z,801-628-3345,2017-06-20T15:10:38.000Z,WASHINGTON,DC,350 GALLOWAY STREET NE,38.9528981345,-77.0001817038,399984.25,142777.41,20011,307670,449135,385662,5,5A,5A01,FOURTH,405,19,NONE,NONE,NONE,NONE
-76.990536263360937,38.892960417186913,18208112,363728,CANCELLED,General Business Licenses,400313900093,"Clean As A Whistle Contractor ; Andrea Alexander",2012-10-01T00:00:00.000Z,2014-09-30T00:00:00.000Z,2014-09-30T00:00:00.000Z,202-486-7515,2017-06-20T15:10:38.000Z,WASHINGTON,DC,1132 PARK STREET NE,38.8929529643,-76.9905339832,400821.2,136123.03,20002,73208,46903,46903,6,6A,6A03,FIRST,107,25,NONE,NONE,NONE,NONE
-77.070561167873294,38.965245442934268,18208114,363730,CANCELLED,General Business Licenses,400313900099,Michele McNamara,2012-10-01T00:00:00.000Z,2014-09-30T00:00:00.000Z,2014-08-27T00:00:00.000Z,202-362-5677,2017-06-20T15:10:38.000Z,WASHINGTON,DC,5604 NEVADA AVENUE NW,38.9652379785,-77.0705588587,393885.05,144149.61,20015,263199,106042,106042,3,3G,3G05,SECOND,201,10,NONE,NONE,NONE,NONE
-77.087971032907632,38.930535352605744,18208115,363731,CANCELLED,General Business Licenses,400313900151,"X-Ponential Publishing Consultants, LLC; Daniel W. Brown",2012-10-01T00:00:00.000Z,2014-09-30T00:00:00.000Z,2014-08-27T00:00:00.000Z,202-686-0117,2017-06-20T15:10:38.000Z,WASHINGTON,DC,4437 CATHEDRAL AVENUE NW,38.9305278958,-77.0879687205,392372.52,140297.79,20016,265328,107852,107852,3,3D,3D01,SECOND,205,13,NONE,NONE,NONE,NONE
-77.097796329106743,38.946080646969364,18208210,362990,CANCELLED,Charitable Solicitation,400212000206,EMERGENCY USA-LIFE SUPPORT FOR CIVILIAN VICTIMS OF WAR AND POVERT,2012-04-01T00:00:00.000Z,2014-03-31T00:00:00.000Z,2014-04-10T00:00:00.000Z,2022657122,2017-06-20T15:10:38.000Z,WASHINGTON,DC,4910 MASSACHUSETTS AVENUE NW,38.9460731874,-77.0977940128,391522.45,142024.32,20016,269771,112650,112650,3,3D,3D03,SECOND,205,13,NONE,NONE,NONE,NONE
-76.992388443444227,38.893924358124153,18208213,362994,CANCELLED,Charitable Solicitation,400212000252,LEM WILLS FOUNDATION (THE),2012-06-01T00:00:00.000Z,2014-05-31T00:00:00.000Z,2014-05-14T00:00:00.000Z,2025482661,2017-06-20T15:10:38.000Z,WASHINGTON,DC,309 10TH STREET NE,38.8939169052,-76.9923861626,400660.51,136230.02,20002,40975,28922,28922,6,6A,6A05,FIRST,107,25,NONE,NONE,NONE,NONE
-77.029151356104379,38.902895640066646,18208214,362995,CANCELLED,Charitable Solicitation,400212000292,THE AMYOTROPHIC LATERAL SCLEROSIS ASSOCIATION,2012-06-01T00:00:00.000Z,2014-05-31T00:00:00.000Z,2014-04-17T00:00:00.000Z,2024078580,2017-06-20T15:10:38.000Z,WASHINGTON,DC,1275 K STREET NW,38.9028881867,-77.0291490634,397471.6,137226.28,20005,243281,86211,86211,2,2F,2F03,FIRST,101,8,NONE,NONE,NONE,DOWNTOWN BID
-77.028260707560179,38.9618124367463,18208806,358822,ACTIVE,Food Products,69000089,SUPER DOLLAR PLUS INC,2017-01-01T00:00:00.000Z,2018-12-31T00:00:00.000Z,2014-12-05T00:00:00.000Z,2026830133,2017-06-20T15:10:36.000Z,WASHINGTON,DC,5918 GEORGIA AVENUE NW,38.9618049714,-77.0282584116,397550.88,143766.53,20011,285284,124103,124103,4,4A,4A06,FOURTH,402,17,NONE,NONE,NONE,NONE
-77.068927722606119,38.934325859824696,18206880,363736,CANCELLED,General Business Licenses,400313900366,Sam Hastings-Black,2012-11-01T00:00:00.000Z,2014-10-31T00:00:00.000Z,2014-11-05T00:00:00.000Z,202-966-3451,2017-06-20T15:10:38.000Z,WASHINGTON,DC,3312 35TH STREET NW,38.9343184016,-77.0689254158,394024.02,140717.15,20016,221658,64374,64374,3,3C,3C09,SECOND,203,15,NONE,NONE,NONE,NONE
-77.075455961340225,38.91669119151215,18206881,363737,CANCELLED,General Business Licenses,400313900387,Alicia Sanderman,2012-11-01T00:00:00.000Z,2014-10-31T00:00:00.000Z,2014-09-10T00:00:00.000Z,732-718-0462,2017-06-20T15:10:38.000Z,WASHINGTON,DC,1957 39TH STREET NW,38.9166837371,-77.0754536536,393456.39,138760,20007,270747,113583,113583,2,2E,2E01,SECOND,206,4,NONE,NONE,NONE,NONE
-77.015668101647805,38.899649722511953,18206883,363739,CANCELLED,General Business Licenses,400313900426,"Stuller Service Centers, Inc.; Jason Patten",2012-11-01T00:00:00.000Z,2014-10-31T00:00:00.000Z,2014-09-05T00:00:00.000Z,337-262-7700,2017-06-20T15:10:38.000Z,WASHINGTON,DC,300 MASSACHUSETTS AVENUE NW,38.8996422693,-77.0156658133,398641.08,136865.67,20001,279643,121752,121752,2,6C,6C09,FIRST,103,8,NONE,NONE,NONE,DOWNTOWN BID
-76.984714992220717,38.906373970722804,18206885,363741,CANCELLED,General Business Licenses,400313900448,Marshall Morrison,2012-12-01T00:00:00.000Z,2014-11-30T00:00:00.000Z,2014-11-24T00:00:00.000Z,913-226-8496,2017-06-20T15:10:38.000Z,WASHINGTON,DC,1282 HOLBROOK TERRACE NE,38.906366515,-76.984712713,401325.96,137612.11,20002,69048,43403,43403,5,5B,5B05,FIFTH,506,23,NONE,NONE,NONE,NONE
-77.060390727828874,38.969521767909825,18206888,363745,CANCELLED,General Business Licenses,400313900485,"Legacy Capital LLC; Nicole Morrill",2012-12-01T00:00:00.000Z,2014-11-30T00:00:00.000Z,2014-10-21T00:00:00.000Z,202-558-8865,2017-06-20T15:10:38.000Z,WASHINGTON,DC,2908 RITTENHOUSE STREET NW,38.9695143022,-77.0603884215,394766.78,144623.69,20015,260096,103291,103291,4,3G,3G02,SECOND,201,10,NONE,NONE,NONE,NONE
-77.033938518202717,38.902895068067913,18206961,363011,CANCELLED,Charitable Solicitation,400213000091,"WEBSTER, CHAMERLAIN & BEAN, LLP",2012-11-01T00:00:00.000Z,2014-10-31T00:00:00.000Z,2014-12-17T00:00:00.000Z,2023712830,2017-06-20T15:10:38.000Z,WASHINGTON,DC,1000 VERMONT AVENUE NW,38.9028876148,-77.0339362241,397056.36,137226.36,20005,240261,83559,83559,2,2F,2F03,SECOND,207,8,NONE,NONE,NONE,DOWNTOWN BID
-77.070208256929433,38.90416538461951,18206973,363075,CANCELLED,Charitable Solicitation,400215000015,Michael Kummer,2014-09-01T00:00:00.000Z,2016-08-31T00:00:00.000Z,2014-12-29T00:00:00.000Z,8594686811,2017-06-20T15:10:38.000Z,WASHINGTON,DC,3530 WATER STREET NW,38.9041579325,-77.0702059516,393910.42,137369.17,20007,308557,418453,359337,2,2E,2E05,SECOND,206,4,NONE,NONE,NONE,NONE
-77.034922744829132,38.922488908861574,18206981,363417,CANCELLED,Charitable Solicitation,70101448,"VIETNAMESE-AMERICAN COMMUNITY SERVICE CENTER, INC.",2012-03-01T00:00:00.000Z,2014-02-28T00:00:00.000Z,2014-01-10T00:00:00.000Z,2022654080,2017-06-20T15:10:38.000Z,WASHINGTON,DC,2437 15TH STREET NW,38.9224814517,-77.0349204492,396971.82,139401.47,20009,234197,76879,76879,1,1B,1B06,THIRD,304,2,NONE,NONE,NONE,NONE
-77.024339511811718,38.896445403891235,18206982,363418,CANCELLED,Charitable Solicitation,70102375,CLIMATE REALITY ACTION FUND,2012-03-01T00:00:00.000Z,2014-02-28T00:00:00.000Z,2014-03-18T00:00:00.000Z,2022911131,2017-06-20T15:10:38.000Z,WASHINGTON,DC,901 E STREET NW,38.8964379516,-77.024337221,397888.79,136510.13,20004,239821,82785,82785,2,2C,2C03,FIRST,101,8,NONE,NONE,NONE,DOWNTOWN BID
-77.039388813514975,38.905407769420094,18207038,363363,CANCELLED,Charitable Solicitation,68006261,AMERICANS FOR PROSPERITY FOUNDATION,2012-10-01T00:00:00.000Z,2014-09-30T00:00:00.000Z,2014-08-22T00:00:00.000Z,8009279800,2017-06-20T15:10:38.000Z,WASHINGTON,DC,1726 M STREET NW,38.9054003159,-77.0393865176,396583.72,137505.48,20036,241792,85071,85071,2,2B,2B05,SECOND,207,6,NONE,NONE,NONE,GOLDEN TRIANGLE BID
-77.039388813514975,38.905407769420094,18207039,363364,CANCELLED,Charitable Solicitation,68006322,AMERICANS FOR PROSPERITY,2012-10-01T00:00:00.000Z,2014-09-30T00:00:00.000Z,2014-08-27T00:00:00.000Z,8009279800,2017-06-20T15:10:38.000Z,WASHINGTON,DC,1726 M STREET NW,38.9054003159,-77.0393865176,396583.72,137505.48,20036,241792,85071,85071,2,2B,2B05,SECOND,207,6,NONE,NONE,NONE,GOLDEN TRIANGLE BID
-77.040818914430758,38.899626795904148,18207051,363379,CANCELLED,Charitable Solicitation,69002957,WEBSTER CHAMBERLAIN & BEAN,2011-04-01T00:00:00.000Z,2013-03-31T00:00:00.000Z,2014-01-28T00:00:00.000Z,2027859500,2017-06-20T15:10:38.000Z,WASHINGTON,DC,1747 PENNSYLVANIA AVENUE NW,38.8996193436,-77.0408166184,396459.39,136863.8,20006,279374,121441,121441,2,2B,2B06,SECOND,207,6,NONE,NONE,NONE,GOLDEN TRIANGLE BID
-77.032290152413026,38.911304559158665,18207056,363425,CANCELLED,Charitable Solicitation,70105865,INFINITY WELLNESS FOUNDATION,2012-07-01T00:00:00.000Z,2014-06-30T00:00:00.000Z,2014-06-23T00:00:00.000Z,2028124241,2017-06-20T15:10:38.000Z,WASHINGTON,DC,1401 Q STREET NW,38.9112971042,-77.0322878583,397199.67,138159.83,20009,300327,298545,298314,2,2F,2F01,THIRD,301,7,NONE,NONE,NONE,NONE
-77.026106855065208,38.982236593258904,18207062,362294,CANCELLED,Gasoline Dealer,70108349,SURRIYA CORPORATION INC,2012-10-01T00:00:00.000Z,2014-09-30T00:00:00.000Z,2014-02-11T00:00:00.000Z,2022445890,2017-06-20T15:10:38.000Z,WASHINGTON,DC,7605 GEORGIA AVENUE NW,38.9822291238,-77.0261045585,397738.2,146033.75,20012,253716,96900,96900,4,4B,4B01,FOURTH,401,17,NONE,NONE,NONE,NONE
-77.013924790750579,38.96978498068647,18207072,362690,CANCELLED,Solid Waste Vehicle,39501175,URBAN SERVICE SYSTEM CORPORATION,2012-03-01T00:00:00.000Z,2014-02-28T00:00:00.000Z,2014-01-31T00:00:00.000Z,2022345926,2017-06-20T15:10:38.000Z,WASHINGTON,DC,212 VAN BUREN STREET NW,38.9697775132,-77.0139224987,398793.49,144651.27,20012,245457,88390,88390,4,4B,4B07,FOURTH,406,19,NONE,NONE,NONE,NONE
-77.063968994721051,38.907689521940569,18207131,363758,CANCELLED,General Business Licenses,400313901991,"Bloomers LLC; Kim Putens",2013-05-01T00:00:00.000Z,2015-04-30T00:00:00.000Z,2014-04-02T00:00:00.000Z,571-312-0852,2017-06-20T15:10:38.000Z,WASHINGTON,DC,3210 O STREET NW,38.9076820689,-77.0639666911,394451.88,137759.98,20007,272128,115281,115281,2,2E,2E03,SECOND,206,4,NONE,NONE,NONE,GEORGETOWN BID
-77.048316162437331,38.916024535459663,18207132,363759,CANCELLED,General Business Licenses,400313902025,"Thrifty Measures; Paul F. LeBlanc",2013-05-01T00:00:00.000Z,2015-04-30T00:00:00.000Z,2014-04-04T00:00:00.000Z,917-535-9535,2017-06-20T15:10:38.000Z,WASHINGTON,DC,2144 CALIFORNIA STREET NW,38.9160170801,-77.0483138631,395810.01,138684.4,20008,218640,61829,61829,2,2D,2D02,SECOND,208,1,NONE,NONE,NONE,NONE
-77.013827206346178,38.906956631714607,18207137,363766,CANCELLED,General Business Licenses,400313902192,"A.R.E. DELICATE FACES, LLC",2013-06-01T00:00:00.000Z,2015-05-31T00:00:00.000Z,2014-03-11T00:00:00.000Z,2029051023,2017-06-20T15:10:38.000Z,WASHINGTON,DC,1226 KIRBY STREET NW,38.9069491769,-77.0138249181,398800.89,137676.77,20001,238318,81611,81611,6,6C,6C02,FIFTH,501,21,NONE,NONE,NONE,NONE
-77.024032538804875,38.938895067459974,18207147,363778,CANCELLED,General Business Licenses,400313902509,"we are the robots; Guy Barker",2013-07-01T00:00:00.000Z,2015-06-30T00:00:00.000Z,2014-01-27T00:00:00.000Z,202-643-6616,2017-06-20T15:10:38.000Z,WASHINGTON,DC,821 RANDOLPH STREET NW,38.9388876066,-77.0240302455,397916.66,141222.39,20011,252542,95724,95724,4,4C,4C08,FOURTH,407,18,NONE,NONE,NONE,NONE
-77.013924790750579,38.96978498068647,18207152,362699,CANCELLED,Solid Waste Vehicle,39801867,URBAN SERVICE SYSTEMS CORPORATION,2012-03-01T00:00:00.000Z,2014-02-28T00:00:00.000Z,2014-01-31T00:00:00.000Z,2025432000,2017-06-20T15:10:38.000Z,WASHINGTON,DC,212 VAN BUREN STREET NW,38.9697775132,-77.0139224987,398793.49,144651.27,20012,245457,88390,88390,4,4B,4B07,FOURTH,406,19,NONE,NONE,NONE,NONE
-77.046645884305761,38.915428952446469,18207256,363431,CANCELLED,Charitable Solicitation,70109494,POLARIS PROJECT,2012-11-01T00:00:00.000Z,2014-10-31T00:00:00.000Z,2014-10-09T00:00:00.000Z,2027451001,2017-06-20T15:10:38.000Z,WASHINGTON,DC,1832 CONNECTICUT AVENUE NW,38.9154214972,-77.0466435855,395954.83,138618.21,20009,299900,181296,181296,2,2D,2D02,SECOND,208,1,NONE,NONE,NONE,NONE
-76.972940322147423,38.934301615212355,18207259,363435,CANCELLED,Charitable Solicitation,70110340,LA TRENZA LEADERSHIP,2012-12-01T00:00:00.000Z,2014-11-30T00:00:00.000Z,2014-12-08T00:00:00.000Z,2028310522,2017-06-20T15:10:38.000Z,WASHINGTON,DC,2226 NEWTON STREET NE,38.9342941534,-76.9729380448,402346.33,140712.55,20018,49931,19712,19712,5,5A,5A11,FIFTH,503,24,NONE,NONE,NONE,NONE
-77.063044296872761,38.903082702073299,18207560,363461,CANCELLED,General Business Licenses,400311004874,SAIMA SAYS DESIGN LLC,2011-04-01T00:00:00.000Z,2013-03-31T00:00:00.000Z,2014-06-23T00:00:00.000Z,2029698223,2017-06-20T15:10:38.000Z,WASHINGTON,DC,1010 WISCONSIN AVENUE NW,38.9030752499,-77.0630419938,394531.73,137248.53,20007,278784,120852,120852,2,2E,2E05,SECOND,206,4,NONE,NONE,NONE,GEORGETOWN BID
-77.064495896365003,38.908971390574138,18207562,363464,CANCELLED,General Business Licenses,400311004884,LUDLOW CREATIONS LLC,2013-04-01T00:00:00.000Z,2015-03-31T00:00:00.000Z,2014-06-23T00:00:00.000Z,2022987771,2017-06-20T15:10:38.000Z,WASHINGTON,DC,3235 P STREET NW,38.9089639373,-77.0644935925,394406.28,137902.31,20007,272590,115384,115384,2,2E,2E03,SECOND,206,4,NONE,NONE,NONE,GEORGETOWN BID
-77.035814762585716,38.916809788427386,18207563,363465,CANCELLED,General Business Licenses,400311004886,MODLIFE DESIGN LLC,2011-04-01T00:00:00.000Z,2013-03-31T00:00:00.000Z,2014-06-23T00:00:00.000Z,2025288546,2017-06-20T15:10:38.000Z,WASHINGTON,DC,1532 U STREET NW,38.9168023325,-77.035812467,396894.22,138771.07,20009,242095,85356,85356,2,2B,2B09,THIRD,301,6,NONE,NONE,NONE,NONE
-77.032541341913458,38.896539255954032,18207567,363469,CANCELLED,General Business Licenses,400311004905,PINCHAS LTD.,2013-04-01T00:00:00.000Z,2015-03-31T00:00:00.000Z,2014-08-20T00:00:00.000Z,8882373410,2017-06-20T15:10:38.000Z,WASHINGTON,DC,1455 PENNSYLVANIA AVENUE NW,38.896531804,-77.0325390486,397177.3,136520.77,20004,299578,135253,135253,2,2F,2F03,SECOND,207,8,NONE,NONE,NONE,DOWNTOWN BID
-77.013924790750579,38.96978498068647,18207641,362644,CANCELLED,Solid Waste Collection,68007085,URBAN SERVICES SYSTEMS CORPORATION,2012-11-01T00:00:00.000Z,2014-10-31T00:00:00.000Z,2014-10-03T00:00:00.000Z,2025432000,2017-06-20T15:10:38.000Z,WASHINGTON,DC,212 VAN BUREN STREET NW,38.9697775132,-77.0139224987,398793.49,144651.27,20012,245457,88390,88390,4,4B,4B07,FOURTH,406,19,NONE,NONE,NONE,NONE
-77.048580666782144,38.90466598410196,18207664,357730,ACTIVE,Swimming Pool,68004187,22 WEST A CONDOMINIUM,2008-06-01T00:00:00.000Z,2010-05-31T00:00:00.000Z,2014-04-29T00:00:00.000Z,2027371000,2017-06-20T15:10:35.000Z,WASHINGTON,DC,1177 22ND STREET NW,38.9046585311,-77.0485783681,395786.4,137423.52,20037,303055,409973,352860,2,2A,2A02,SECOND,207,5,NONE,NONE,NONE,NONE
-77.035030125183638,38.905391321135042,18210731,360760,ACTIVE,Restaurant,66004435,CARIBOU COFFEE COMPANY INC,2012-07-01T00:00:00.000Z,2014-06-30T00:00:00.000Z,2014-10-30T00:00:00.000Z,2022233233,2017-06-20T15:10:37.000Z,WASHINGTON,DC,1156 15TH STREET NW,38.9053838674,-77.0350278306,396961.78,137503.5,20005,242325,85264,85264,2,2B,2B05,SECOND,207,6,NONE,NONE,NONE,DOWNTOWN BID
-76.94438653164336,38.870187862462508,18210814,362274,CANCELLED,Gasoline Dealer,66005921,"FORT DUPONT, INC.",2014-09-01T00:00:00.000Z,2016-08-31T00:00:00.000Z,2014-10-23T00:00:00.000Z,2025826165,2017-06-20T15:10:37.000Z,WASHINGTON,DC,4101 ALABAMA AVENUE SE,38.8701804125,-76.944384267,404826.34,133596.53,20019,278474,120579,120579,7,7B,7B07,SIXTH,605,34,NONE,NONE,NONE,NONE
-77.038828659953751,38.903370717679486,18211054,361980,CANCELLED,Employment Agency,100214000003,"CTI Global Solutions, Inc.; Dee Carroll",2014-01-01T00:00:00.000Z,2015-12-31T00:00:00.000Z,2014-02-11T00:00:00.000Z,2022043045,2017-06-20T15:10:37.000Z,WASHINGTON,DC,1050 17TH STREET NW,38.9033632645,-77.0388263643,396632.21,137279.33,20036,278801,121186,121186,2,2B,2B05,SECOND,207,6,NONE,NONE,NONE,GOLDEN TRIANGLE BID
-77.064325890298534,38.905326435264229,18211689,360663,ACTIVE,Restaurant,69003643,GBP LLC,2009-05-01T00:00:00.000Z,2011-04-30T00:00:00.000Z,2014-01-22T00:00:00.000Z,2023378269,2017-06-20T15:10:37.000Z,WASHINGTON,DC,3245 M STREET NW,38.9053189827,-77.0643235867,394420.74,137497.68,20007,271985,114800,114800,2,2E,2E05,SECOND,206,4,NONE,NONE,NONE,GEORGETOWN BID
-76.977041564578371,38.90039675238242,18211914,363295,CANCELLED,General Business Licenses,400312001480,B R A C E &  C U S P,2012-06-01T00:00:00.000Z,2014-05-31T00:00:00.000Z,2014-05-13T00:00:00.000Z,,2017-06-20T15:10:38.000Z,WASHINGTON,DC,1812 H STREET NE,38.9003892975,-76.9770392881,401991.69,136948.73,20002,55643,32912,32912,5,5B,5B11,FIFTH,507,23,NONE,NONE,NONE,NONE
-77.032297442246858,38.899650001792182,18211915,363296,CANCELLED,General Business Licenses,400312001491,,2012-06-01T00:00:00.000Z,2014-05-31T00:00:00.000Z,2014-12-08T00:00:00.000Z,8002462677,2017-06-20T15:10:38.000Z,WASHINGTON,DC,1401 NEW YORK AVENUE NW,38.8997922607,-77.0323218467,397198.58,136866.08,20005,279128,121246,121246,2,2F,2F03,SECOND,207,8,NONE,NONE,NONE,DOWNTOWN BID
-77.101778187377093,38.92562587046887,18211916,363299,CANCELLED,General Business Licenses,400312001535,,2012-07-01T00:00:00.000Z,2014-06-30T00:00:00.000Z,2014-07-14T00:00:00.000Z,2024608887,2017-06-20T15:10:38.000Z,WASHINGTON,DC,5125 MACARTHUR BOULEVARD NW,38.9256184152,-77.1017758711,391174.74,139754.04,20016,224084,67409,67409,3,3D,3D05,SECOND,205,13,NONE,NONE,NONE,NONE
-77.044254291238076,38.91169241287141,18211996,363303,CANCELLED,General Business Licenses,400312001554,L2 FEDERAL RESOURCES L.L.C.,2012-07-01T00:00:00.000Z,2014-06-30T00:00:00.000Z,2014-06-23T00:00:00.000Z,,2017-06-20T15:10:38.000Z,WASHINGTON,DC,1611 CONNECTICUT AVENUE NW,38.9116849583,-77.0442519934,396162.04,138203.32,20009,243022,86281,86281,2,2B,2B02,SECOND,208,6,NONE,NONE,NONE,NONE
-77.040906504428833,38.89998727989272,18211997,363305,CANCELLED,General Business Licenses,400312001611,"PRC, LLC",2012-07-01T00:00:00.000Z,2014-06-30T00:00:00.000Z,2014-07-02T00:00:00.000Z,2027419400,2017-06-20T15:10:38.000Z,WASHINGTON,DC,1750 H STREET NW,38.8999798275,-77.0409042083,396451.81,136903.82,20006,218471,61596,61596,2,2B,2B06,SECOND,207,6,NONE,NONE,NONE,GOLDEN TRIANGLE BID
-76.976419135444672,38.871853117656222,18211999,363311,CANCELLED,General Business Licenses,400312001649,,2012-07-01T00:00:00.000Z,2014-06-30T00:00:00.000Z,2014-07-09T00:00:00.000Z,,2017-06-20T15:10:38.000Z,WASHINGTON,DC,1921 P STREET SE,38.8718456686,-76.9764168609,402046.5,133780.18,20020,54002,28296,28296,8,8A,8A01,SIXTH,607,34,NONE,NONE,NONE,NONE
-77.080577682969661,38.953672990296958,18212000,363657,CANCELLED,General Business Licenses,400312900348,Jennifer L Carden,2012-04-01T00:00:00.000Z,2014-03-31T00:00:00.000Z,2014-04-04T00:00:00.000Z,202-657-4633,2017-06-20T15:10:38.000Z,WASHINGTON,DC,4906 41ST STREET NW,38.9536655286,-77.0805753714,393015.84,142865.68,20016,264505,107326,107326,3,3E,3E04,SECOND,202,11,NONE,NONE,NONE,NONE
-76.984679226908909,38.900047037832806,18212002,363661,CANCELLED,General Business Licenses,400312900384,The Elroy,2014-04-01T00:00:00.000Z,2016-03-31T00:00:00.000Z,2014-07-30T00:00:00.000Z,2022883516,2017-06-20T15:10:38.000Z,WASHINGTON,DC,1423 H STREET NE,38.9000395833,-76.9846769481,401329.18,136909.77,20002,286175,125032,125032,6,6A,6A06,FIRST,104,25,NONE,NONE,NONE,NONE
-76.995237734259021,38.880190601660551,18212008,363669,CANCELLED,General Business Licenses,400312900483,"tabula rasa; Amanda Clarke",2012-05-01T00:00:00.000Z,2014-04-30T00:00:00.000Z,2014-04-03T00:00:00.000Z,202-487-6332,2017-06-20T15:10:38.000Z,WASHINGTON,DC,731 8TH STREET SE,38.8801831516,-76.9952354534,400413.41,134705.45,20003,78285,51154,51154,6,6B,6B03,FIRST,106,26,NONE,NONE,NONE,CAPITOL HILL BID
-77.001319266745597,38.875223461873659,18212010,363671,CANCELLED,General Business Licenses,400312900528,"Sassapress LLC; Barbra Ignatiev",2012-05-01T00:00:00.000Z,2014-04-30T00:00:00.000Z,2014-05-14T00:00:00.000Z,414-510-7687,2017-06-20T15:10:38.000Z,WASHINGTON,DC,301 TINGEY STREET SE,38.875216013,-77.0013169843,399885.72,134154.05,20003,307282,445910,382722,6,6D,6D07,FIRST,106,27,NONE,NONE,NONE,CAPITOL RIVERFRONT BID
-76.982610919166987,38.924303416808307,18212071,363617,CANCELLED,General Business Licenses,400312000487,"HERITAGE MAINTENANCE COMPANY, INC/HERTIAGE TECHNOLOGY",2012-01-01T00:00:00.000Z,2013-12-31T00:00:00.000Z,2014-09-10T00:00:00.000Z,2023878324,2017-06-20T15:10:38.000Z,WASHINGTON,DC,1503 EVARTS STREET NE,38.9242959574,-76.9826086395,401508.08,139602.46,20018,62443,38149,38149,5,5B,5B01,FIFTH,505,22,NONE,NONE,NONE,NONE
-77.005878172394674,38.927089795466117,18212079,363629,CANCELLED,General Business Licenses,400312000657,API,2012-02-01T00:00:00.000Z,2014-01-31T00:00:00.000Z,2014-03-21T00:00:00.000Z,2025723100,2017-06-20T15:10:38.000Z,WASHINGTON,DC,111 MICHIGAN AVENUE NE,38.9270823362,-77.0058758851,399490.49653,139911.64459,,0,152004,152004,5,5C,5C09,FOURTH,405,21,NONE,NONE,NONE,NONE
-77.037898171811392,38.902930244383604,18212080,363630,CANCELLED,General Business Licenses,400312000769,,2012-03-01T00:00:00.000Z,2014-02-28T00:00:00.000Z,2014-07-15T00:00:00.000Z,2028350680,2017-06-20T15:10:38.000Z,WASHINGTON,DC,1629 K STREET NW,38.9029227913,-77.0378958765,396712.9,137230.4,20006,242031,84978,84978,2,2B,2B05,SECOND,207,6,NONE,NONE,NONE,GOLDEN TRIANGLE BID
-77.063732584260563,38.904658160367902,18212081,363631,CANCELLED,General Business Licenses,400312000802,ZOOMSYSTEMS,2012-03-01T00:00:00.000Z,2014-02-28T00:00:00.000Z,2014-03-21T00:00:00.000Z,8007671553,2017-06-20T15:10:38.000Z,WASHINGTON,DC,3222 M STREET NW,38.9046507079,-77.0637302809,394472.15,137423.46,20007,275795,117972,117972,2,2E,2E05,SECOND,206,4,NONE,NONE,NONE,GEORGETOWN BID
-77.019642549206964,38.905115122352043,18212086,363678,CANCELLED,General Business Licenses,400312900640,"Group CTI; Julio Murillo",2012-05-01T00:00:00.000Z,2014-04-30T00:00:00.000Z,2014-05-14T00:00:00.000Z,202-247-7328,2017-06-20T15:10:38.000Z,WASHINGTON,DC,1127 6TH STREET NW,38.9051076681,-77.0196402593,398296.45,137472.44,20001,302480,264324,264511,6,2C,2C04,THIRD,308,8,NONE,NONE,NONE,NONE
-77.037074644971753,38.909075285226564,18212188,362936,CANCELLED,Charitable Solicitation,65004694,"WIRELESS FOUNDATION, THE",2011-08-01T00:00:00.000Z,2013-07-31T00:00:00.000Z,2014-06-24T00:00:00.000Z,2025723100,2017-06-20T15:10:38.000Z,WASHINGTON,DC,1400 16TH STREET NW,38.9090678309,-77.0370723495,396784.61,137912.52,20036,242015,84962,84962,2,2B,2B05,SECOND,208,6,NONE,NONE,NONE,NONE
-77.040916130546321,38.910538669903069,18212192,362944,CANCELLED,Charitable Solicitation,65990715,WASHINGTON ARCHITECTURAL FOUNDATION,2011-09-01T00:00:00.000Z,2013-08-31T00:00:00.000Z,2014-07-15T00:00:00.000Z,9999999999,2017-06-20T15:10:38.000Z,WASHINGTON,DC,1777 CHURCH STREET NW,38.9105312154,-77.0409138338,396451.5,138075.11,20036,225921,68951,68951,2,2B,2B07,SECOND,208,6,NONE,NONE,NONE,NONE
-77.010686040522231,38.895397435746602,18212199,363314,CANCELLED,General Business Licenses,400312001711,CHERRY BLOSSOM INC OF MARYLAND,2012-07-01T00:00:00.000Z,2014-06-30T00:00:00.000Z,2014-12-05T00:00:00.000Z,2025479135,2017-06-20T15:10:38.000Z,WASHINGTON,DC,415 NEW JERSEY AVENUE NW,38.8953899832,-77.010683754,399073.19,136393.57,20001,237162,80463,80463,6,6C,6C08,FIRST,103,8,NONE,NONE,NONE,DOWNTOWN BID
-76.991776790092544,38.903095460513882,18212200,363315,CANCELLED,General Business Licenses,400312001720,MUSEUM HOPPER & SHUTTLE LLC,2012-07-01T00:00:00.000Z,2014-06-30T00:00:00.000Z,2014-07-14T00:00:00.000Z,3019749841,2017-06-20T15:10:38.000Z,WASHINGTON,DC,1016 11TH STREET NE,38.9030880057,-76.9917745089,400713.48,137248.09,20002,75592,49392,49392,6,6A,6A01,FIRST,104,25,NONE,NONE,NONE,NONE
-76.989971180019452,38.884950660841149,18212203,363320,CANCELLED,General Business Licenses,400312001926,APTLY NOTED,2012-08-01T00:00:00.000Z,2014-07-31T00:00:00.000Z,2014-07-28T00:00:00.000Z,,2017-06-20T15:10:38.000Z,WASHINGTON,DC,316 12TH STREET SE,38.8849432096,-76.9899689005,400870.32,135233.89,20003,150632,59027,59027,6,6B,6B06,FIRST,107,26,NONE,NONE,NONE,NONE
-77.046877445763428,38.907047136957978,18212266,363264,CANCELLED,General Business Licenses,400312001057,"JANNUCCI SHOCKLEY VENTURES, LLC",2012-04-01T00:00:00.000Z,2014-03-31T00:00:00.000Z,2014-03-10T00:00:00.000Z,,2017-06-20T15:10:38.000Z,WASHINGTON,DC,1280 21ST STREET NW,38.9070396834,-77.0468751474,395934.27,137687.77,20036,226628,69350,69350,2,2B,2B06,SECOND,208,5,NONE,NONE,NONE,NONE
-76.984411253159124,38.897148291442782,18212268,363266,CANCELLED,General Business Licenses,400312001075,SANS-FRONTIERE GLOBAL CONSULTING,2012-04-01T00:00:00.000Z,2014-03-31T00:00:00.000Z,2014-04-08T00:00:00.000Z,2027055329,2017-06-20T15:10:38.000Z,WASHINGTON,DC,1427 F STREET NE,38.8971408375,-76.9844089746,401352.48,136587.99,20002,63867,39155,39155,6,6A,6A06,FIRST,108,25,NONE,NONE,NONE,NONE
-77.019031430076424,38.881480500556457,18212271,363271,CANCELLED,General Business Licenses,400312001157,MANAGEMENT DEVELOPMENT CORPORATION,2012-04-01T00:00:00.000Z,2014-03-31T00:00:00.000Z,2014-04-15T00:00:00.000Z,2026291716,2017-06-20T15:10:38.000Z,WASHINGTON,DC,503 G STREET SW,38.8814730511,-77.0190291418,398348.91,134848.8,20024,14691,9236,9236,6,6D,6D01,FIRST,105,9,NONE,NONE,NONE,NONE
-77.026487721338071,38.89871900806348,18212273,363275,CANCELLED,General Business Licenses,400312001211,EXPORT CONTROL RESOURCES LLC,2012-05-01T00:00:00.000Z,2014-04-30T00:00:00.000Z,2014-03-27T00:00:00.000Z,,2017-06-20T15:10:38.000Z,WASHINGTON,DC,1001 G STREET NW,38.8987115554,-77.0264854298,397702.51,136762.57,20001,239369,82404,82404,2,2C,2C03,FIRST,101,8,NONE,NONE,NONE,DOWNTOWN BID
-77.082999192475512,38.956277929591906,18212276,363279,CANCELLED,General Business Licenses,400312001261,"COMPUTING TECHNOLOGIES, INC",2012-04-01T00:00:00.000Z,2014-03-31T00:00:00.000Z,2014-03-07T00:00:00.000Z,,2017-06-20T15:10:38.000Z,WASHINGTON,DC,5101 WISCONSIN AVENUE NW,38.9562704674,-77.08299688,392806.21,143155.04,20016,266465,109629,109629,3,3E,3E04,SECOND,202,11,NONE,NONE,NONE,NONE
-77.045383756971248,38.904592049996154,18212278,363282,CANCELLED,General Business Licenses,400312001276,GEORGIA 3218 LLC,2012-05-01T00:00:00.000Z,2014-04-30T00:00:00.000Z,2014-03-21T00:00:00.000Z,2024576710,2017-06-20T15:10:38.000Z,WASHINGTON,DC,1120 20TH STREET NW,38.9045845969,-77.0453814592,396063.69,137415.17,20036,240941,83892,83892,2,2A,2A02,SECOND,207,6,NONE,NONE,NONE,GOLDEN TRIANGLE BID
-77.027991745080598,38.94593101190145,18212279,363283,CANCELLED,General Business Licenses,400312001303,NIKUS JEWELRY DESIGNS,2012-05-01T00:00:00.000Z,2014-04-30T00:00:00.000Z,2014-03-14T00:00:00.000Z,3012198761,2017-06-20T15:10:38.000Z,WASHINGTON,DC,1130 BUCHANAN STREET NW,38.9459235498,-77.0279894501,397573.65,142003.54,20011,252728,95965,95965,4,4C,4C03,FOURTH,404,18,NONE,NONE,NONE,NONE
-77.000945308684578,38.962176268944866,18212283,363329,CANCELLED,General Business Licenses,400312002058,MY BROTHER'S KEEPER TRANSITIONAL LIVING SERVICES INC,2012-08-01T00:00:00.000Z,2014-07-31T00:00:00.000Z,2014-07-30T00:00:00.000Z,,2017-06-20T15:10:38.000Z,WASHINGTON,DC,400 ONEIDA STREET NE,38.9621688025,-77.0009430211,399918.27,143806.54,20011,28340,15998,15998,4,4B,4B08,FOURTH,406,19,NONE,NONE,NONE,NONE
-77.08537432501997,38.958835287765339,18212287,363334,CANCELLED,General Business Licenses,400312002130,"TJX COMPANIES, INC. (THE)",2012-09-01T00:00:00.000Z,2014-08-31T00:00:00.000Z,2014-09-04T00:00:00.000Z,2025723100,2017-06-20T15:10:38.000Z,WASHINGTON,DC,4350 JENIFER STREET NW,38.9588278252,-77.0853720117,392600.61,143439.12,20015,305103,198583,198583,3,3E,3E03,SECOND,202,11,NONE,NONE,NONE,NONE
-77.049975180223001,38.915979066243381,18212289,363336,CANCELLED,General Business Licenses,400312002144,PRESERVE OUR GREEN SPACE IN SHERIDAN-KALORAMA,2012-09-01T00:00:00.000Z,2014-08-31T00:00:00.000Z,2014-07-03T00:00:00.000Z,2023320183,2017-06-20T15:10:38.000Z,WASHINGTON,DC,2229 CALIFORNIA STREET NW,38.915971611,-77.0499728804,395666.13,138679.43,20008,235019,78328,78328,2,2D,2D01,SECOND,208,1,NONE,NONE,NONE,NONE
-77.024032538804875,38.938895067459974,18212293,363688,CANCELLED,General Business Licenses,400312900743,Grant Barker,2012-06-01T00:00:00.000Z,2014-05-31T00:00:00.000Z,2014-04-21T00:00:00.000Z,202-596-2024,2017-06-20T15:10:38.000Z,WASHINGTON,DC,821 RANDOLPH STREET NW,38.9388876066,-77.0240302455,397916.66,141222.39,20011,252542,95724,95724,4,4C,4C08,FOURTH,407,18,NONE,NONE,NONE,NONE
-76.996470233366466,38.954460193153309,18212294,363689,CANCELLED,General Business Licenses,400312900754,"SAFEPAC; Bernita Carmichael",2012-06-01T00:00:00.000Z,2014-05-31T00:00:00.000Z,2014-11-10T00:00:00.000Z,202-486-4079,2017-06-20T15:10:38.000Z,WASHINGTON,DC,569 INGRAHAM STREET NE,38.9544527281,-76.9964679476,400306.15,142949.99,20011,7197,5524,5524,5,5A,5A02,FOURTH,405,19,NONE,NONE,NONE,NONE
-76.985226403088987,38.903713870084708,18212296,363692,CANCELLED,General Business Licenses,400312900772,"Revolution Promotional Marketing, Inc.; Lindsey Tharp",2012-06-01T00:00:00.000Z,2014-05-31T00:00:00.000Z,2014-08-08T00:00:00.000Z,202-333-1144,2017-06-20T15:10:38.000Z,WASHINGTON,DC,1322 ORREN STREET NE,38.9037064149,-76.9852241239,401281.65,137316.81,20002,67648,42002,42002,5,5B,5B08,FIFTH,506,23,NONE,NONE,NONE,NONE
-76.986847461294332,38.899992891527923,18212357,363634,CANCELLED,General Business Licenses,400312000817,"PHELPS & PHELPS CONSULTING, LLC",2012-03-01T00:00:00.000Z,2014-02-28T00:00:00.000Z,2014-05-19T00:00:00.000Z,2022919353,2017-06-20T15:10:38.000Z,WASHINGTON,DC,1341 H STREET NE,38.8999854371,-76.9868451818,401141.1,136903.73,20002,286083,124612,124612,6,6A,6A06,FIRST,104,25,NONE,NONE,NONE,NONE
-77.041285383204098,38.901887550167487,18212362,363642,CANCELLED,General Business Licenses,400312000919,WILLDAN GROUP INC,2012-03-01T00:00:00.000Z,2014-02-28T00:00:00.000Z,2014-04-07T00:00:00.000Z,2025723100,2017-06-20T15:10:38.000Z,WASHINGTON,DC,919 18TH STREET NW,38.9018800974,-77.0412830869,396419.04,137114.78,20006,236720,79385,79385,2,2B,2B06,SECOND,207,6,NONE,NONE,NONE,GOLDEN TRIANGLE BID
-76.99523810145412,38.886779966200706,18212363,363643,CANCELLED,General Business Licenses,400312000934,,2012-03-01T00:00:00.000Z,2014-02-28T00:00:00.000Z,2014-04-03T00:00:00.000Z,,2017-06-20T15:10:38.000Z,WASHINGTON,DC,223 8TH STREET SE,38.8867725148,-76.9952358202,400413.34,135436.92,20003,49787,20470,20470,6,6B,6B02,FIRST,107,26,NONE,NONE,NONE,NONE
-77.039922887837065,38.926914626819212,18212364,363647,CANCELLED,General Business Licenses,400312900248,"Capital City Farm Co.; Kate Lee",2012-03-01T00:00:00.000Z,2014-02-28T00:00:00.000Z,2014-02-28T00:00:00.000Z,703-909-3829,2017-06-20T15:10:38.000Z,WASHINGTON,DC,1650 HARVARD STREET NW,38.926907169,-77.0399205904,396538.44,139892.94,20009,236287,79285,79285,1,1C,1C05,THIRD,303,1,NONE,NONE,NONE,NONE
-77.032407260471814,38.938119683165525,18212367,363653,CANCELLED,General Business Licenses,400312900300,"Austin Royster Funeral Home; Charles Royster",2012-04-01T00:00:00.000Z,2014-03-31T00:00:00.000Z,2014-06-17T00:00:00.000Z,240-508-6303,2017-06-20T15:10:38.000Z,WASHINGTON,DC,3821 14TH STREET NW,38.9381118895,-77.0324049645,397190.57,141136.54,20011,225230,68554,68554,4,ANC 4C,4C05,POLICE - FOURTH,Poli,18,NONE,NONE,NONE,NONE
-77.032407260471814,38.938119683165525,18212368,363653,CANCELLED,General Business Licenses,400312900300,"Austin Royster Funeral Home; Charles Royster",2012-04-01T00:00:00.000Z,2014-03-31T00:00:00.000Z,2014-06-17T00:00:00.000Z,240-508-6303,2017-06-20T15:10:38.000Z,WASHINGTON,DC,3821 14TH STREET NW,38.9381118895,-77.0324049645,397190.57,141136.54,20011,225230,68554,68554,4,ANC 4C,4C05,POLICE - FOURTH,Poli,18,NONE,NONE,NONE,NONE
-77.032407260471814,38.938119683165525,18212369,363653,CANCELLED,General Business Licenses,400312900300,"Austin Royster Funeral Home; Charles Royster",2012-04-01T00:00:00.000Z,2014-03-31T00:00:00.000Z,2014-06-17T00:00:00.000Z,240-508-6303,2017-06-20T15:10:38.000Z,WASHINGTON,DC,3821 14TH STREET NW,38.9381118895,-77.0324049645,397190.57,141136.54,20011,225230,68554,68554,4,ANC 4C,4C05,POLICE - FOURTH,Poli,18,NONE,NONE,NONE,NONE
-77.032407260471814,38.938119683165525,18212370,363653,CANCELLED,General Business Licenses,400312900300,"Austin Royster Funeral Home; Charles Royster",2012-04-01T00:00:00.000Z,2014-03-31T00:00:00.000Z,2014-06-17T00:00:00.000Z,240-508-6303,2017-06-20T15:10:38.000Z,WASHINGTON,DC,3821 14TH STREET NW,38.9381118895,-77.0324049645,397190.57,141136.54,20011,225230,68554,68554,4,ANC 4C,4C05,POLICE - FOURTH,Poli,18,NONE,NONE,NONE,NONE
-77.032407260471814,38.938119683165525,18212371,363653,CANCELLED,General Business Licenses,400312900300,"Austin Royster Funeral Home; Charles Royster",2012-04-01T00:00:00.000Z,2014-03-31T00:00:00.000Z,2014-06-17T00:00:00.000Z,240-508-6303,2017-06-20T15:10:38.000Z,WASHINGTON,DC,3821 14TH STREET NW,38.9381118895,-77.0324049645,397190.57,141136.54,20011,225230,68554,68554,4,ANC 4C,4C05,POLICE - FOURTH,Poli,18,NONE,NONE,NONE,NONE
-77.032407260471814,38.938119683165525,18212372,363653,CANCELLED,General Business Licenses,400312900300,"Austin Royster Funeral Home; Charles Royster",2012-04-01T00:00:00.000Z,2014-03-31T00:00:00.000Z,2014-06-17T00:00:00.000Z,240-508-6303,2017-06-20T15:10:38.000Z,WASHINGTON,DC,3821 14TH STREET NW,38.9381118895,-77.0324049645,397190.57,141136.54,20011,225230,68554,68554,4,ANC 4C,4C05,POLICE - FOURTH,Poli,18,NONE,NONE,NONE,NONE
-77.032407260471814,38.938119683165525,18212373,363653,CANCELLED,General Business Licenses,400312900300,"Austin Royster Funeral Home; Charles Royster",2012-04-01T00:00:00.000Z,2014-03-31T00:00:00.000Z,2014-06-17T00:00:00.000Z,240-508-6303,2017-06-20T15:10:38.000Z,WASHINGTON,DC,3821 14TH STREET NW,38.9381118895,-77.0324049645,397190.57,141136.54,20011,225230,68554,68554,4,ANC 4C,4C05,POLICE - FOURTH,Poli,18,NONE,NONE,NONE,NONE
-77.032407260471814,38.938119683165525,18212455,363653,CANCELLED,General Business Licenses,400312900300,"Austin Royster Funeral Home; Charles Royster",2012-04-01T00:00:00.000Z,2014-03-31T00:00:00.000Z,2014-06-17T00:00:00.000Z,240-508-6303,2017-06-20T15:10:38.000Z,WASHINGTON,DC,3821 14TH STREET NW,38.9381118895,-77.0324049645,397190.57,141136.54,20011,225230,68554,68554,4,ANC 4C,4C05,POLICE - FOURTH,Poli,18,NONE,NONE,NONE,NONE
-77.032407260471814,38.938119683165525,18212456,363653,CANCELLED,General Business Licenses,400312900300,"Austin Royster Funeral Home; Charles Royster",2012-04-01T00:00:00.000Z,2014-03-31T00:00:00.000Z,2014-06-17T00:00:00.000Z,240-508-6303,2017-06-20T15:10:38.000Z,WASHINGTON,DC,3821 14TH STREET NW,38.9381118895,-77.0324049645,397190.57,141136.54,20011,225230,68554,68554,4,ANC 4C,4C05,POLICE - FOURTH,Poli,18,NONE,NONE,NONE,NONE
-77.032407260471814,38.938119683165525,18212457,363653,CANCELLED,General Business Licenses,400312900300,"Austin Royster Funeral Home; Charles Royster",2012-04-01T00:00:00.000Z,2014-03-31T00:00:00.000Z,2014-06-17T00:00:00.000Z,240-508-6303,2017-06-20T15:10:38.000Z,WASHINGTON,DC,3821 14TH STREET NW,38.9381118895,-77.0324049645,397190.57,141136.54,20011,225230,68554,68554,4,ANC 4C,4C05,POLICE - FOURTH,Poli,18,NONE,NONE,NONE,NONE
-77.032407260471814,38.938119683165525,18212458,363653,CANCELLED,General Business Licenses,400312900300,"Austin Royster Funeral Home; Charles Royster",2012-04-01T00:00:00.000Z,2014-03-31T00:00:00.000Z,2014-06-17T00:00:00.000Z,240-508-6303,2017-06-20T15:10:38.000Z,WASHINGTON,DC,3821 14TH STREET NW,38.9381118895,-77.0324049645,397190.57,141136.54,20011,225230,68554,68554,4,ANC 4C,4C05,POLICE - FOURTH,Poli,18,NONE,NONE,NONE,NONE
-77.032407260471814,38.938119683165525,18212459,363653,CANCELLED,General Business Licenses,400312900300,"Austin Royster Funeral Home; Charles Royster",2012-04-01T00:00:00.000Z,2014-03-31T00:00:00.000Z,2014-06-17T00:00:00.000Z,240-508-6303,2017-06-20T15:10:38.000Z,WASHINGTON,DC,3821 14TH STREET NW,38.9381118895,-77.0324049645,397190.57,141136.54,20011,225230,68554,68554,4,ANC 4C,4C05,POLICE - FOURTH,Poli,18,NONE,NONE,NONE,NONE
-77.032407260471814,38.938119683165525,18212460,363653,CANCELLED,General Business Licenses,400312900300,"Austin Royster Funeral Home; Charles Royster",2012-04-01T00:00:00.000Z,2014-03-31T00:00:00.000Z,2014-06-17T00:00:00.000Z,240-508-6303,2017-06-20T15:10:38.000Z,WASHINGTON,DC,3821 14TH STREET NW,38.9381118895,-77.0324049645,397190.57,141136.54,20011,225230,68554,68554,4,ANC 4C,4C05,POLICE - FOURTH,Poli,18,NONE,NONE,NONE,NONE
-77.032407260471814,38.938119683165525,18212461,363653,CANCELLED,General Business Licenses,400312900300,"Austin Royster Funeral Home; Charles Royster",2012-04-01T00:00:00.000Z,2014-03-31T00:00:00.000Z,2014-06-17T00:00:00.000Z,240-508-6303,2017-06-20T15:10:38.000Z,WASHINGTON,DC,3821 14TH STREET NW,38.9381118895,-77.0324049645,397190.57,141136.54,20011,225230,68554,68554,4,ANC 4C,4C05,POLICE - FOURTH,Poli,18,NONE,NONE,NONE,NONE
-77.032407260471814,38.938119683165525,18212462,363653,CANCELLED,General Business Licenses,400312900300,"Austin Royster Funeral Home; Charles Royster",2012-04-01T00:00:00.000Z,2014-03-31T00:00:00.000Z,2014-06-17T00:00:00.000Z,240-508-6303,2017-06-20T15:10:38.000Z,WASHINGTON,DC,3821 14TH STREET NW,38.9381118895,-77.0324049645,397190.57,141136.54,20011,225230,68554,68554,4,ANC 4C,4C05,POLICE - FOURTH,Poli,18,NONE,NONE,NONE,NONE
-77.032407260471814,38.938119683165525,18212463,363653,CANCELLED,General Business Licenses,400312900300,"Austin Royster Funeral Home; Charles Royster",2012-04-01T00:00:00.000Z,2014-03-31T00:00:00.000Z,2014-06-17T00:00:00.000Z,240-508-6303,2017-06-20T15:10:38.000Z,WASHINGTON,DC,3821 14TH STREET NW,38.9381118895,-77.0324049645,397190.57,141136.54,20011,225230,68554,68554,4,ANC 4C,4C05,POLICE - FOURTH,Poli,18,NONE,NONE,NONE,NONE
-77.032407260471814,38.938119683165525,18212464,363653,CANCELLED,General Business Licenses,400312900300,"Austin Royster Funeral Home; Charles Royster",2012-04-01T00:00:00.000Z,2014-03-31T00:00:00.000Z,2014-06-17T00:00:00.000Z,240-508-6303,2017-06-20T15:10:38.000Z,WASHINGTON,DC,3821 14TH STREET NW,38.9381118895,-77.0324049645,397190.57,141136.54,20011,225230,68554,68554,4,ANC 4C,4C05,POLICE - FOURTH,Poli,18,NONE,NONE,NONE,NONE
-77.032407260471814,38.938119683165525,18212465,363653,CANCELLED,General Business Licenses,400312900300,"Austin Royster Funeral Home; Charles Royster",2012-04-01T00:00:00.000Z,2014-03-31T00:00:00.000Z,2014-06-17T00:00:00.000Z,240-508-6303,2017-06-20T15:10:38.000Z,WASHINGTON,DC,3821 14TH STREET NW,38.9381118895,-77.0324049645,397190.57,141136.54,20011,225230,68554,68554,4,ANC 4C,4C05,POLICE - FOURTH,Poli,18,NONE,NONE,NONE,NONE
-77.032407260471814,38.938119683165525,18212466,363653,CANCELLED,General Business Licenses,400312900300,"Austin Royster Funeral Home; Charles Royster",2012-04-01T00:00:00.000Z,2014-03-31T00:00:00.000Z,2014-06-17T00:00:00.000Z,240-508-6303,2017-06-20T15:10:38.000Z,WASHINGTON,DC,3821 14TH STREET NW,38.9381118895,-77.0324049645,397190.57,141136.54,20011,225230,68554,68554,4,ANC 4C,4C05,POLICE - FOURTH,Poli,18,NONE,NONE,NONE,NONE
-77.032407260471814,38.938119683165525,18212467,363653,CANCELLED,General Business Licenses,400312900300,"Austin Royster Funeral Home; Charles Royster",2012-04-01T00:00:00.000Z,2014-03-31T00:00:00.000Z,2014-06-17T00:00:00.000Z,240-508-6303,2017-06-20T15:10:38.000Z,WASHINGTON,DC,3821 14TH STREET NW,38.9381118895,-77.0324049645,397190.57,141136.54,20011,225230,68554,68554,4,ANC 4C,4C05,POLICE - FOURTH,Poli,18,NONE,NONE,NONE,NONE
-77.032407260471814,38.938119683165525,18212468,363653,CANCELLED,General Business Licenses,400312900300,"Austin Royster Funeral Home; Charles Royster",2012-04-01T00:00:00.000Z,2014-03-31T00:00:00.000Z,2014-06-17T00:00:00.000Z,240-508-6303,2017-06-20T15:10:38.000Z,WASHINGTON,DC,3821 14TH STREET NW,38.9381118895,-77.0324049645,397190.57,141136.54,20011,225230,68554,68554,4,ANC 4C,4C05,POLICE - FOURTH,Poli,18,NONE,NONE,NONE,NONE
-77.032407260471814,38.938119683165525,18212469,363653,CANCELLED,General Business Licenses,400312900300,"Austin Royster Funeral Home; Charles Royster",2012-04-01T00:00:00.000Z,2014-03-31T00:00:00.000Z,2014-06-17T00:00:00.000Z,240-508-6303,2017-06-20T15:10:38.000Z,WASHINGTON,DC,3821 14TH STREET NW,38.9381118895,-77.0324049645,397190.57,141136.54,20011,225230,68554,68554,4,ANC 4C,4C05,POLICE - FOURTH,Poli,18,NONE,NONE,NONE,NONE
-77.032407260471814,38.938119683165525,18212470,363653,CANCELLED,General Business Licenses,400312900300,"Austin Royster Funeral Home; Charles Royster",2012-04-01T00:00:00.000Z,2014-03-31T00:00:00.000Z,2014-06-17T00:00:00.000Z,240-508-6303,2017-06-20T15:10:38.000Z,WASHINGTON,DC,3821 14TH STREET NW,38.9381118895,-77.0324049645,397190.57,141136.54,20011,225230,68554,68554,4,ANC 4C,4C05,POLICE - FOURTH,Poli,18,NONE,NONE,NONE,NONE
-77.032407260471814,38.938119683165525,18212471,363653,CANCELLED,General Business Licenses,400312900300,"Austin Royster Funeral Home; Charles Royster",2012-04-01T00:00:00.000Z,2014-03-31T00:00:00.000Z,2014-06-17T00:00:00.000Z,240-508-6303,2017-06-20T15:10:38.000Z,WASHINGTON,DC,3821 14TH STREET NW,38.9381118895,-77.0324049645,397190.57,141136.54,20011,225230,68554,68554,4,ANC 4C,4C05,POLICE - FOURTH,Poli,18,NONE,NONE,NONE,NONE
-77.032407260471814,38.938119683165525,18212472,363653,CANCELLED,General Business Licenses,400312900300,"Austin Royster Funeral Home; Charles Royster",2012-04-01T00:00:00.000Z,2014-03-31T00:00:00.000Z,2014-06-17T00:00:00.000Z,240-508-6303,2017-06-20T15:10:38.000Z,WASHINGTON,DC,3821 14TH STREET NW,38.9381118895,-77.0324049645,397190.57,141136.54,20011,225230,68554,68554,4,ANC 4C,4C05,POLICE - FOURTH,Poli,18,NONE,NONE,NONE,NONE
-77.032407260471814,38.938119683165525,18212473,363653,CANCELLED,General Business Licenses,400312900300,"Austin Royster Funeral Home; Charles Royster",2012-04-01T00:00:00.000Z,2014-03-31T00:00:00.000Z,2014-06-17T00:00:00.000Z,240-508-6303,2017-06-20T15:10:38.000Z,WASHINGTON,DC,3821 14TH STREET NW,38.9381118895,-77.0324049645,397190.57,141136.54,20011,225230,68554,68554,4,ANC 4C,4C05,POLICE - FOURTH,Poli,18,NONE,NONE,NONE,NONE
-77.032407260471814,38.938119683165525,18212474,363653,CANCELLED,General Business Licenses,400312900300,"Austin Royster Funeral Home; Charles Royster",2012-04-01T00:00:00.000Z,2014-03-31T00:00:00.000Z,2014-06-17T00:00:00.000Z,240-508-6303,2017-06-20T15:10:38.000Z,WASHINGTON,DC,3821 14TH STREET NW,38.9381118895,-77.0324049645,397190.57,141136.54,20011,225230,68554,68554,4,ANC 4C,4C05,POLICE - FOURTH,Poli,18,NONE,NONE,NONE,NONE
-77.032407260471814,38.938119683165525,18212475,363653,CANCELLED,General Business Licenses,400312900300,"Austin Royster Funeral Home; Charles Royster",2012-04-01T00:00:00.000Z,2014-03-31T00:00:00.000Z,2014-06-17T00:00:00.000Z,240-508-6303,2017-06-20T15:10:38.000Z,WASHINGTON,DC,3821 14TH STREET NW,38.9381118895,-77.0324049645,397190.57,141136.54,20011,225230,68554,68554,4,ANC 4C,4C05,POLICE - FOURTH,Poli,18,NONE,NONE,NONE,NONE
-77.032407260471814,38.938119683165525,18212476,363653,CANCELLED,General Business Licenses,400312900300,"Austin Royster Funeral Home; Charles Royster",2012-04-01T00:00:00.000Z,2014-03-31T00:00:00.000Z,2014-06-17T00:00:00.000Z,240-508-6303,2017-06-20T15:10:38.000Z,WASHINGTON,DC,3821 14TH STREET NW,38.9381118895,-77.0324049645,397190.57,141136.54,20011,225230,68554,68554,4,ANC 4C,4C05,POLICE - FOURTH,Poli,18,NONE,NONE,NONE,NONE
-77.032407260471814,38.938119683165525,18212477,363653,CANCELLED,General Business Licenses,400312900300,"Austin Royster Funeral Home; Charles Royster",2012-04-01T00:00:00.000Z,2014-03-31T00:00:00.000Z,2014-06-17T00:00:00.000Z,240-508-6303,2017-06-20T15:10:38.000Z,WASHINGTON,DC,3821 14TH STREET NW,38.9381118895,-77.0324049645,397190.57,141136.54,20011,225230,68554,68554,4,ANC 4C,4C05,POLICE - FOURTH,Poli,18,NONE,NONE,NONE,NONE
-77.032407260471814,38.938119683165525,18212478,363653,CANCELLED,General Business Licenses,400312900300,"Austin Royster Funeral Home; Charles Royster",2012-04-01T00:00:00.000Z,2014-03-31T00:00:00.000Z,2014-06-17T00:00:00.000Z,240-508-6303,2017-06-20T15:10:38.000Z,WASHINGTON,DC,3821 14TH STREET NW,38.9381118895,-77.0324049645,397190.57,141136.54,20011,225230,68554,68554,4,ANC 4C,4C05,POLICE - FOURTH,Poli,18,NONE,NONE,NONE,NONE
-77.020503715956863,38.893306903845854,18212490,362967,CANCELLED,Charitable Solicitation,67002330,JUDY MULCAHY ,2009-05-01T00:00:00.000Z,2011-04-30T00:00:00.000Z,2014-08-11T00:00:00.000Z,2027859500,2017-06-20T15:10:38.000Z,WASHINGTON,DC,601 PENNSYLVANIA AVENUE NW,38.8932994521,-77.0205014265,398221.46,136161.65,20004,226088,69395,69395,2,6C,6C09,FIRST,102,8,NONE,NONE,NONE,DOWNTOWN BID
-77.013924790750579,38.96978498068647,18212507,362781,CANCELLED,Solid Waste Vehicle,64003100,URBAN SERVICES SYSTEMS CORPORATION,2012-09-01T00:00:00.000Z,2014-08-31T00:00:00.000Z,2014-07-08T00:00:00.000Z,2025432000,2017-06-20T15:10:38.000Z,WASHINGTON,DC,212 VAN BUREN STREET NW,38.9697775132,-77.0139224987,398793.49,144651.27,20012,245457,88390,88390,4,4B,4B07,FOURTH,406,19,NONE,NONE,NONE,NONE
-76.993887449848799,38.924789738583463,18212510,363150,CANCELLED,Charitable Solicitation,50009460,MANNA INC,2003-09-01T00:00:00.000Z,2005-08-31T00:00:00.000Z,2014-07-14T00:00:00.000Z,9999999999,2017-06-20T15:10:38.000Z,WASHINGTON,DC,828 EVARTS STREET NE,38.9247822794,-76.9938851667,400530.24,139656.32,20018,290119,129004,129004,5,5B,5B04,FIFTH,504,21,NONE,NONE,NONE,NONE
-77.032407260471814,38.938119683165525,18212546,363653,CANCELLED,General Business Licenses,400312900300,"Austin Royster Funeral Home; Charles Royster",2012-04-01T00:00:00.000Z,2014-03-31T00:00:00.000Z,2014-06-17T00:00:00.000Z,240-508-6303,2017-06-20T15:10:38.000Z,WASHINGTON,DC,3821 14TH STREET NW,38.9381118895,-77.0324049645,397190.57,141136.54,20011,225230,68554,68554,4,ANC 4C,4C05,POLICE - FOURTH,Poli,18,NONE,NONE,NONE,NONE
-77.032407260471814,38.938119683165525,18212547,363653,CANCELLED,General Business Licenses,400312900300,"Austin Royster Funeral Home; Charles Royster",2012-04-01T00:00:00.000Z,2014-03-31T00:00:00.000Z,2014-06-17T00:00:00.000Z,240-508-6303,2017-06-20T15:10:38.000Z,WASHINGTON,DC,3821 14TH STREET NW,38.9381118895,-77.0324049645,397190.57,141136.54,20011,225230,68554,68554,4,ANC 4C,4C05,POLICE - FOURTH,Poli,18,NONE,NONE,NONE,NONE
-77.032407260471814,38.938119683165525,18212548,363653,CANCELLED,General Business Licenses,400312900300,"Austin Royster Funeral Home; Charles Royster",2012-04-01T00:00:00.000Z,2014-03-31T00:00:00.000Z,2014-06-17T00:00:00.000Z,240-508-6303,2017-06-20T15:10:38.000Z,WASHINGTON,DC,3821 14TH STREET NW,38.9381118895,-77.0324049645,397190.57,141136.54,20011,225230,68554,68554,4,ANC 4C,4C05,POLICE - FOURTH,Poli,18,NONE,NONE,NONE,NONE
-77.032407260471814,38.938119683165525,18212549,363653,CANCELLED,General Business Licenses,400312900300,"Austin Royster Funeral Home; Charles Royster",2012-04-01T00:00:00.000Z,2014-03-31T00:00:00.000Z,2014-06-17T00:00:00.000Z,240-508-6303,2017-06-20T15:10:38.000Z,WASHINGTON,DC,3821 14TH STREET NW,38.9381118895,-77.0324049645,397190.57,141136.54,20011,225230,68554,68554,4,ANC 4C,4C05,POLICE - FOURTH,Poli,18,NONE,NONE,NONE,NONE
-77.032407260471814,38.938119683165525,18212550,363653,CANCELLED,General Business Licenses,400312900300,"Austin Royster Funeral Home; Charles Royster",2012-04-01T00:00:00.000Z,2014-03-31T00:00:00.000Z,2014-06-17T00:00:00.000Z,240-508-6303,2017-06-20T15:10:38.000Z,WASHINGTON,DC,3821 14TH STREET NW,38.9381118895,-77.0324049645,397190.57,141136.54,20011,225230,68554,68554,4,ANC 4C,4C05,POLICE - FOURTH,Poli,18,NONE,NONE,NONE,NONE
-77.032407260471814,38.938119683165525,18212551,363653,CANCELLED,General Business Licenses,400312900300,"Austin Royster Funeral Home; Charles Royster",2012-04-01T00:00:00.000Z,2014-03-31T00:00:00.000Z,2014-06-17T00:00:00.000Z,240-508-6303,2017-06-20T15:10:38.000Z,WASHINGTON,DC,3821 14TH STREET NW,38.9381118895,-77.0324049645,397190.57,141136.54,20011,225230,68554,68554,4,ANC 4C,4C05,POLICE - FOURTH,Poli,18,NONE,NONE,NONE,NONE
-77.032407260471814,38.938119683165525,18212552,363653,CANCELLED,General Business Licenses,400312900300,"Austin Royster Funeral Home; Charles Royster",2012-04-01T00:00:00.000Z,2014-03-31T00:00:00.000Z,2014-06-17T00:00:00.000Z,240-508-6303,2017-06-20T15:10:38.000Z,WASHINGTON,DC,3821 14TH STREET NW,38.9381118895,-77.0324049645,397190.57,141136.54,20011,225230,68554,68554,4,ANC 4C,4C05,POLICE - FOURTH,Poli,18,NONE,NONE,NONE,NONE
-77.032407260471814,38.938119683165525,18212553,363653,CANCELLED,General Business Licenses,400312900300,"Austin Royster Funeral Home; Charles Royster",2012-04-01T00:00:00.000Z,2014-03-31T00:00:00.000Z,2014-06-17T00:00:00.000Z,240-508-6303,2017-06-20T15:10:38.000Z,WASHINGTON,DC,3821 14TH STREET NW,38.9381118895,-77.0324049645,397190.57,141136.54,20011,225230,68554,68554,4,ANC 4C,4C05,POLICE - FOURTH,Poli,18,NONE,NONE,NONE,NONE
-77.032407260471814,38.938119683165525,18212554,363653,CANCELLED,General Business Licenses,400312900300,"Austin Royster Funeral Home; Charles Royster",2012-04-01T00:00:00.000Z,2014-03-31T00:00:00.000Z,2014-06-17T00:00:00.000Z,240-508-6303,2017-06-20T15:10:38.000Z,WASHINGTON,DC,3821 14TH STREET NW,38.9381118895,-77.0324049645,397190.57,141136.54,20011,225230,68554,68554,4,ANC 4C,4C05,POLICE - FOURTH,Poli,18,NONE,NONE,NONE,NONE
-77.032407260471814,38.938119683165525,18212555,363653,CANCELLED,General Business Licenses,400312900300,"Austin Royster Funeral Home; Charles Royster",2012-04-01T00:00:00.000Z,2014-03-31T00:00:00.000Z,2014-06-17T00:00:00.000Z,240-508-6303,2017-06-20T15:10:38.000Z,WASHINGTON,DC,3821 14TH STREET NW,38.9381118895,-77.0324049645,397190.57,141136.54,20011,225230,68554,68554,4,ANC 4C,4C05,POLICE - FOURTH,Poli,18,NONE,NONE,NONE,NONE
-77.032407260471814,38.938119683165525,18212556,363653,CANCELLED,General Business Licenses,400312900300,"Austin Royster Funeral Home; Charles Royster",2012-04-01T00:00:00.000Z,2014-03-31T00:00:00.000Z,2014-06-17T00:00:00.000Z,240-508-6303,2017-06-20T15:10:38.000Z,WASHINGTON,DC,3821 14TH STREET NW,38.9381118895,-77.0324049645,397190.57,141136.54,20011,225230,68554,68554,4,ANC 4C,4C05,POLICE - FOURTH,Poli,18,NONE,NONE,NONE,NONE
-77.032407260471814,38.938119683165525,18212557,363653,CANCELLED,General Business Licenses,400312900300,"Austin Royster Funeral Home; Charles Royster",2012-04-01T00:00:00.000Z,2014-03-31T00:00:00.000Z,2014-06-17T00:00:00.000Z,240-508-6303,2017-06-20T15:10:38.000Z,WASHINGTON,DC,3821 14TH STREET NW,38.9381118895,-77.0324049645,397190.57,141136.54,20011,225230,68554,68554,4,ANC 4C,4C05,POLICE - FOURTH,Poli,18,NONE,NONE,NONE,NONE
-77.032407260471814,38.938119683165525,18212558,363653,CANCELLED,General Business Licenses,400312900300,"Austin Royster Funeral Home; Charles Royster",2012-04-01T00:00:00.000Z,2014-03-31T00:00:00.000Z,2014-06-17T00:00:00.000Z,240-508-6303,2017-06-20T15:10:38.000Z,WASHINGTON,DC,3821 14TH STREET NW,38.9381118895,-77.0324049645,397190.57,141136.54,20011,225230,68554,68554,4,ANC 4C,4C05,POLICE - FOURTH,Poli,18,NONE,NONE,NONE,NONE
-77.032407260471814,38.938119683165525,18212559,363653,CANCELLED,General Business Licenses,400312900300,"Austin Royster Funeral Home; Charles Royster",2012-04-01T00:00:00.000Z,2014-03-31T00:00:00.000Z,2014-06-17T00:00:00.000Z,240-508-6303,2017-06-20T15:10:38.000Z,WASHINGTON,DC,3821 14TH STREET NW,38.9381118895,-77.0324049645,397190.57,141136.54,20011,225230,68554,68554,4,ANC 4C,4C05,POLICE - FOURTH,Poli,18,NONE,NONE,NONE,NONE
-77.032407260471814,38.938119683165525,18212560,363653,CANCELLED,General Business Licenses,400312900300,"Austin Royster Funeral Home; Charles Royster",2012-04-01T00:00:00.000Z,2014-03-31T00:00:00.000Z,2014-06-17T00:00:00.000Z,240-508-6303,2017-06-20T15:10:38.000Z,WASHINGTON,DC,3821 14TH STREET NW,38.9381118895,-77.0324049645,397190.57,141136.54,20011,225230,68554,68554,4,ANC 4C,4C05,POLICE - FOURTH,Poli,18,NONE,NONE,NONE,NONE
-77.032407260471814,38.938119683165525,18212561,363653,CANCELLED,General Business Licenses,400312900300,"Austin Royster Funeral Home; Charles Royster",2012-04-01T00:00:00.000Z,2014-03-31T00:00:00.000Z,2014-06-17T00:00:00.000Z,240-508-6303,2017-06-20T15:10:38.000Z,WASHINGTON,DC,3821 14TH STREET NW,38.9381118895,-77.0324049645,397190.57,141136.54,20011,225230,68554,68554,4,ANC 4C,4C05,POLICE - FOURTH,Poli,18,NONE,NONE,NONE,NONE
-77.032407260471814,38.938119683165525,18212562,363653,CANCELLED,General Business Licenses,400312900300,"Austin Royster Funeral Home; Charles Royster",2012-04-01T00:00:00.000Z,2014-03-31T00:00:00.000Z,2014-06-17T00:00:00.000Z,240-508-6303,2017-06-20T15:10:38.000Z,WASHINGTON,DC,3821 14TH STREET NW,38.9381118895,-77.0324049645,397190.57,141136.54,20011,225230,68554,68554,4,ANC 4C,4C05,POLICE - FOURTH,Poli,18,NONE,NONE,NONE,NONE
-77.032407260471814,38.938119683165525,18212563,363653,CANCELLED,General Business Licenses,400312900300,"Austin Royster Funeral Home; Charles Royster",2012-04-01T00:00:00.000Z,2014-03-31T00:00:00.000Z,2014-06-17T00:00:00.000Z,240-508-6303,2017-06-20T15:10:38.000Z,WASHINGTON,DC,3821 14TH STREET NW,38.9381118895,-77.0324049645,397190.57,141136.54,20011,225230,68554,68554,4,ANC 4C,4C05,POLICE - FOURTH,Poli,18,NONE,NONE,NONE,NONE
-77.032407260471814,38.938119683165525,18212564,363653,CANCELLED,General Business Licenses,400312900300,"Austin Royster Funeral Home; Charles Royster",2012-04-01T00:00:00.000Z,2014-03-31T00:00:00.000Z,2014-06-17T00:00:00.000Z,240-508-6303,2017-06-20T15:10:38.000Z,WASHINGTON,DC,3821 14TH STREET NW,38.9381118895,-77.0324049645,397190.57,141136.54,20011,225230,68554,68554,4,ANC 4C,4C05,POLICE - FOURTH,Poli,18,NONE,NONE,NONE,NONE
-77.032407260471814,38.938119683165525,18212565,363653,CANCELLED,General Business Licenses,400312900300,"Austin Royster Funeral Home; Charles Royster",2012-04-01T00:00:00.000Z,2014-03-31T00:00:00.000Z,2014-06-17T00:00:00.000Z,240-508-6303,2017-06-20T15:10:38.000Z,WASHINGTON,DC,3821 14TH STREET NW,38.9381118895,-77.0324049645,397190.57,141136.54,20011,225230,68554,68554,4,ANC 4C,4C05,POLICE - FOURTH,Poli,18,NONE,NONE,NONE,NONE
-77.032407260471814,38.938119683165525,18212566,363653,CANCELLED,General Business Licenses,400312900300,"Austin Royster Funeral Home; Charles Royster",2012-04-01T00:00:00.000Z,2014-03-31T00:00:00.000Z,2014-06-17T00:00:00.000Z,240-508-6303,2017-06-20T15:10:38.000Z,WASHINGTON,DC,3821 14TH STREET NW,38.9381118895,-77.0324049645,397190.57,141136.54,20011,225230,68554,68554,4,ANC 4C,4C05,POLICE - FOURTH,Poli,18,NONE,NONE,NONE,NONE
-77.032407260471814,38.938119683165525,18212567,363653,CANCELLED,General Business Licenses,400312900300,"Austin Royster Funeral Home; Charles Royster",2012-04-01T00:00:00.000Z,2014-03-31T00:00:00.000Z,2014-06-17T00:00:00.000Z,240-508-6303,2017-06-20T15:10:38.000Z,WASHINGTON,DC,3821 14TH STREET NW,38.9381118895,-77.0324049645,397190.57,141136.54,20011,225230,68554,68554,4,ANC 4C,4C05,POLICE - FOURTH,Poli,18,NONE,NONE,NONE,NONE
-77.032407260471814,38.938119683165525,18212568,363653,CANCELLED,General Business Licenses,400312900300,"Austin Royster Funeral Home; Charles Royster",2012-04-01T00:00:00.000Z,2014-03-31T00:00:00.000Z,2014-06-17T00:00:00.000Z,240-508-6303,2017-06-20T15:10:38.000Z,WASHINGTON,DC,3821 14TH STREET NW,38.9381118895,-77.0324049645,397190.57,141136.54,20011,225230,68554,68554,4,ANC 4C,4C05,POLICE - FOURTH,Poli,18,NONE,NONE,NONE,NONE
-77.032407260471814,38.938119683165525,18212569,363653,CANCELLED,General Business Licenses,400312900300,"Austin Royster Funeral Home; Charles Royster",2012-04-01T00:00:00.000Z,2014-03-31T00:00:00.000Z,2014-06-17T00:00:00.000Z,240-508-6303,2017-06-20T15:10:38.000Z,WASHINGTON,DC,3821 14TH STREET NW,38.9381118895,-77.0324049645,397190.57,141136.54,20011,225230,68554,68554,4,ANC 4C,4C05,POLICE - FOURTH,Poli,18,NONE,NONE,NONE,NONE
-77.029955627909047,38.896384193013844,18212601,363163,CANCELLED,Charitable Solicitation,53001567,NATIONAL PUBLIC HEALTH AND HOSPITAL INSTITUTE,2012-09-01T00:00:00.000Z,2014-08-31T00:00:00.000Z,2014-08-28T00:00:00.000Z,2025850135,2017-06-20T15:10:38.000Z,WASHINGTON,DC,1301 PENNSYLVANIA AVENUE NW,38.896376741,-77.0299533354,397401.6,136503.48,20004,279023,121114,121114,2,2F,2F03,FIRST,101,8,NONE,NONE,NONE,DOWNTOWN BID
-77.02697671193927,38.982167753220288,18212611,363506,CANCELLED,General Business Licenses,400311005194,RENAISSANCE EQUITY PARTNERS LLC,2011-07-01T00:00:00.000Z,2013-06-30T00:00:00.000Z,2014-02-12T00:00:00.000Z,2027265442,2017-06-20T15:10:38.000Z,WASHINGTON,DC,7600 GEORGIA AVENUE NW,38.9821602838,-77.0269744151,397662.83,146026.13,20012,253572,96481,96481,4,4A,4A02,FOURTH,401,16,NONE,NONE,NONE,NONE
-77.041436208051735,38.915040674957396,18212614,363510,CANCELLED,General Business Licenses,400311005237,DOGGIES STYLE LLC,2011-07-01T00:00:00.000Z,2013-06-30T00:00:00.000Z,2014-03-25T00:00:00.000Z,2026054185,2017-06-20T15:10:38.000Z,WASHINGTON,DC,1825 18TH STREET NW,38.9150332196,-77.0414339109,396406.62,138574.89,20009,241554,84504,84504,2,2B,2B08,THIRD,301,6,NONE,NONE,NONE,NONE
-77.032407260471814,38.938119683165525,18212645,363653,CANCELLED,General Business Licenses,400312900300,"Austin Royster Funeral Home; Charles Royster",2012-04-01T00:00:00.000Z,2014-03-31T00:00:00.000Z,2014-06-17T00:00:00.000Z,240-508-6303,2017-06-20T15:10:38.000Z,WASHINGTON,DC,3821 14TH STREET NW,38.9381118895,-77.0324049645,397190.57,141136.54,20011,225230,68554,68554,4,ANC 4C,4C05,POLICE - FOURTH,Poli,18,NONE,NONE,NONE,NONE
-77.032407260471814,38.938119683165525,18212646,363653,CANCELLED,General Business Licenses,400312900300,"Austin Royster Funeral Home; Charles Royster",2012-04-01T00:00:00.000Z,2014-03-31T00:00:00.000Z,2014-06-17T00:00:00.000Z,240-508-6303,2017-06-20T15:10:38.000Z,WASHINGTON,DC,3821 14TH STREET NW,38.9381118895,-77.0324049645,397190.57,141136.54,20011,225230,68554,68554,4,ANC 4C,4C05,POLICE - FOURTH,Poli,18,NONE,NONE,NONE,NONE
-77.032407260471814,38.938119683165525,18212647,363653,CANCELLED,General Business Licenses,400312900300,"Austin Royster Funeral Home; Charles Royster",2012-04-01T00:00:00.000Z,2014-03-31T00:00:00.000Z,2014-06-17T00:00:00.000Z,240-508-6303,2017-06-20T15:10:38.000Z,WASHINGTON,DC,3821 14TH STREET NW,38.9381118895,-77.0324049645,397190.57,141136.54,20011,225230,68554,68554,4,ANC 4C,4C05,POLICE - FOURTH,Poli,18,NONE,NONE,NONE,NONE
-77.032407260471814,38.938119683165525,18212648,363653,CANCELLED,General Business Licenses,400312900300,"Austin Royster Funeral Home; Charles Royster",2012-04-01T00:00:00.000Z,2014-03-31T00:00:00.000Z,2014-06-17T00:00:00.000Z,240-508-6303,2017-06-20T15:10:38.000Z,WASHINGTON,DC,3821 14TH STREET NW,38.9381118895,-77.0324049645,397190.57,141136.54,20011,225230,68554,68554,4,ANC 4C,4C05,POLICE - FOURTH,Poli,18,NONE,NONE,NONE,NONE
-77.032407260471814,38.938119683165525,18212649,363653,CANCELLED,General Business Licenses,400312900300,"Austin Royster Funeral Home; Charles Royster",2012-04-01T00:00:00.000Z,2014-03-31T00:00:00.000Z,2014-06-17T00:00:00.000Z,240-508-6303,2017-06-20T15:10:38.000Z,WASHINGTON,DC,3821 14TH STREET NW,38.9381118895,-77.0324049645,397190.57,141136.54,20011,225230,68554,68554,4,ANC 4C,4C05,POLICE - FOURTH,Poli,18,NONE,NONE,NONE,NONE
-77.032407260471814,38.938119683165525,18212650,363653,CANCELLED,General Business Licenses,400312900300,"Austin Royster Funeral Home; Charles Royster",2012-04-01T00:00:00.000Z,2014-03-31T00:00:00.000Z,2014-06-17T00:00:00.000Z,240-508-6303,2017-06-20T15:10:38.000Z,WASHINGTON,DC,3821 14TH STREET NW,38.9381118895,-77.0324049645,397190.57,141136.54,20011,225230,68554,68554,4,ANC 4C,4C05,POLICE - FOURTH,Poli,18,NONE,NONE,NONE,NONE
-77.032407260471814,38.938119683165525,18212651,363653,CANCELLED,General Business Licenses,400312900300,"Austin Royster Funeral Home; Charles Royster",2012-04-01T00:00:00.000Z,2014-03-31T00:00:00.000Z,2014-06-17T00:00:00.000Z,240-508-6303,2017-06-20T15:10:38.000Z,WASHINGTON,DC,3821 14TH STREET NW,38.9381118895,-77.0324049645,397190.57,141136.54,20011,225230,68554,68554,4,ANC 4C,4C05,POLICE - FOURTH,Poli,18,NONE,NONE,NONE,NONE
-77.032407260471814,38.938119683165525,18212652,363653,CANCELLED,General Business Licenses,400312900300,"Austin Royster Funeral Home; Charles Royster",2012-04-01T00:00:00.000Z,2014-03-31T00:00:00.000Z,2014-06-17T00:00:00.000Z,240-508-6303,2017-06-20T15:10:38.000Z,WASHINGTON,DC,3821 14TH STREET NW,38.9381118895,-77.0324049645,397190.57,141136.54,20011,225230,68554,68554,4,ANC 4C,4C05,POLICE - FOURTH,Poli,18,NONE,NONE,NONE,NONE
-77.032407260471814,38.938119683165525,18212653,363653,CANCELLED,General Business Licenses,400312900300,"Austin Royster Funeral Home; Charles Royster",2012-04-01T00:00:00.000Z,2014-03-31T00:00:00.000Z,2014-06-17T00:00:00.000Z,240-508-6303,2017-06-20T15:10:38.000Z,WASHINGTON,DC,3821 14TH STREET NW,38.9381118895,-77.0324049645,397190.57,141136.54,20011,225230,68554,68554,4,ANC 4C,4C05,POLICE - FOURTH,Poli,18,NONE,NONE,NONE,NONE
-77.032407260471814,38.938119683165525,18212654,363653,CANCELLED,General Business Licenses,400312900300,"Austin Royster Funeral Home; Charles Royster",2012-04-01T00:00:00.000Z,2014-03-31T00:00:00.000Z,2014-06-17T00:00:00.000Z,240-508-6303,2017-06-20T15:10:38.000Z,WASHINGTON,DC,3821 14TH STREET NW,38.9381118895,-77.0324049645,397190.57,141136.54,20011,225230,68554,68554,4,ANC 4C,4C05,POLICE - FOURTH,Poli,18,NONE,NONE,NONE,NONE
-77.032407260471814,38.938119683165525,18212655,363653,CANCELLED,General Business Licenses,400312900300,"Austin Royster Funeral Home; Charles Royster",2012-04-01T00:00:00.000Z,2014-03-31T00:00:00.000Z,2014-06-17T00:00:00.000Z,240-508-6303,2017-06-20T15:10:38.000Z,WASHINGTON,DC,3821 14TH STREET NW,38.9381118895,-77.0324049645,397190.57,141136.54,20011,225230,68554,68554,4,ANC 4C,4C05,POLICE - FOURTH,Poli,18,NONE,NONE,NONE,NONE
-77.032407260471814,38.938119683165525,18212656,363653,CANCELLED,General Business Licenses,400312900300,"Austin Royster Funeral Home; Charles Royster",2012-04-01T00:00:00.000Z,2014-03-31T00:00:00.000Z,2014-06-17T00:00:00.000Z,240-508-6303,2017-06-20T15:10:38.000Z,WASHINGTON,DC,3821 14TH STREET NW,38.9381118895,-77.0324049645,397190.57,141136.54,20011,225230,68554,68554,4,ANC 4C,4C05,POLICE - FOURTH,Poli,18,NONE,NONE,NONE,NONE
-77.032407260471814,38.938119683165525,18212657,363653,CANCELLED,General Business Licenses,400312900300,"Austin Royster Funeral Home; Charles Royster",2012-04-01T00:00:00.000Z,2014-03-31T00:00:00.000Z,2014-06-17T00:00:00.000Z,240-508-6303,2017-06-20T15:10:38.000Z,WASHINGTON,DC,3821 14TH STREET NW,38.9381118895,-77.0324049645,397190.57,141136.54,20011,225230,68554,68554,4,ANC 4C,4C05,POLICE - FOURTH,Poli,18,NONE,NONE,NONE,NONE
-77.032407260471814,38.938119683165525,18212658,363653,CANCELLED,General Business Licenses,400312900300,"Austin Royster Funeral Home; Charles Royster",2012-04-01T00:00:00.000Z,2014-03-31T00:00:00.000Z,2014-06-17T00:00:00.000Z,240-508-6303,2017-06-20T15:10:38.000Z,WASHINGTON,DC,3821 14TH STREET NW,38.9381118895,-77.0324049645,397190.57,141136.54,20011,225230,68554,68554,4,ANC 4C,4C05,POLICE - FOURTH,Poli,18,NONE,NONE,NONE,NONE
-77.032407260471814,38.938119683165525,18212659,363653,CANCELLED,General Business Licenses,400312900300,"Austin Royster Funeral Home; Charles Royster",2012-04-01T00:00:00.000Z,2014-03-31T00:00:00.000Z,2014-06-17T00:00:00.000Z,240-508-6303,2017-06-20T15:10:38.000Z,WASHINGTON,DC,3821 14TH STREET NW,38.9381118895,-77.0324049645,397190.57,141136.54,20011,225230,68554,68554,4,ANC 4C,4C05,POLICE - FOURTH,Poli,18,NONE,NONE,NONE,NONE
-77.032407260471814,38.938119683165525,18212660,363653,CANCELLED,General Business Licenses,400312900300,"Austin Royster Funeral Home; Charles Royster",2012-04-01T00:00:00.000Z,2014-03-31T00:00:00.000Z,2014-06-17T00:00:00.000Z,240-508-6303,2017-06-20T15:10:38.000Z,WASHINGTON,DC,3821 14TH STREET NW,38.9381118895,-77.0324049645,397190.57,141136.54,20011,225230,68554,68554,4,ANC 4C,4C05,POLICE - FOURTH,Poli,18,NONE,NONE,NONE,NONE
-77.032407260471814,38.938119683165525,18212661,363653,CANCELLED,General Business Licenses,400312900300,"Austin Royster Funeral Home; Charles Royster",2012-04-01T00:00:00.000Z,2014-03-31T00:00:00.000Z,2014-06-17T00:00:00.000Z,240-508-6303,2017-06-20T15:10:38.000Z,WASHINGTON,DC,3821 14TH STREET NW,38.9381118895,-77.0324049645,397190.57,141136.54,20011,225230,68554,68554,4,ANC 4C,4C05,POLICE - FOURTH,Poli,18,NONE,NONE,NONE,NONE
-77.032407260471814,38.938119683165525,18212662,363653,CANCELLED,General Business Licenses,400312900300,"Austin Royster Funeral Home; Charles Royster",2012-04-01T00:00:00.000Z,2014-03-31T00:00:00.000Z,2014-06-17T00:00:00.000Z,240-508-6303,2017-06-20T15:10:38.000Z,WASHINGTON,DC,3821 14TH STREET NW,38.9381118895,-77.0324049645,397190.57,141136.54,20011,225230,68554,68554,4,ANC 4C,4C05,POLICE - FOURTH,Poli,18,NONE,NONE,NONE,NONE
-77.032407260471814,38.938119683165525,18212663,363653,CANCELLED,General Business Licenses,400312900300,"Austin Royster Funeral Home; Charles Royster",2012-04-01T00:00:00.000Z,2014-03-31T00:00:00.000Z,2014-06-17T00:00:00.000Z,240-508-6303,2017-06-20T15:10:38.000Z,WASHINGTON,DC,3821 14TH STREET NW,38.9381118895,-77.0324049645,397190.57,141136.54,20011,225230,68554,68554,4,ANC 4C,4C05,POLICE - FOURTH,Poli,18,NONE,NONE,NONE,NONE
-77.032407260471814,38.938119683165525,18212664,363653,CANCELLED,General Business Licenses,400312900300,"Austin Royster Funeral Home; Charles Royster",2012-04-01T00:00:00.000Z,2014-03-31T00:00:00.000Z,2014-06-17T00:00:00.000Z,240-508-6303,2017-06-20T15:10:38.000Z,WASHINGTON,DC,3821 14TH STREET NW,38.9381118895,-77.0324049645,397190.57,141136.54,20011,225230,68554,68554,4,ANC 4C,4C05,POLICE - FOURTH,Poli,18,NONE,NONE,NONE,NONE
-77.032407260471814,38.938119683165525,18212665,363653,CANCELLED,General Business Licenses,400312900300,"Austin Royster Funeral Home; Charles Royster",2012-04-01T00:00:00.000Z,2014-03-31T00:00:00.000Z,2014-06-17T00:00:00.000Z,240-508-6303,2017-06-20T15:10:38.000Z,WASHINGTON,DC,3821 14TH STREET NW,38.9381118895,-77.0324049645,397190.57,141136.54,20011,225230,68554,68554,4,ANC 4C,4C05,POLICE - FOURTH,Poli,18,NONE,NONE,NONE,NONE
-77.032407260471814,38.938119683165525,18212666,363653,CANCELLED,General Business Licenses,400312900300,"Austin Royster Funeral Home; Charles Royster",2012-04-01T00:00:00.000Z,2014-03-31T00:00:00.000Z,2014-06-17T00:00:00.000Z,240-508-6303,2017-06-20T15:10:38.000Z,WASHINGTON,DC,3821 14TH STREET NW,38.9381118895,-77.0324049645,397190.57,141136.54,20011,225230,68554,68554,4,ANC 4C,4C05,POLICE - FOURTH,Poli,18,NONE,NONE,NONE,NONE
-77.032407260471814,38.938119683165525,18212667,363653,CANCELLED,General Business Licenses,400312900300,"Austin Royster Funeral Home; Charles Royster",2012-04-01T00:00:00.000Z,2014-03-31T00:00:00.000Z,2014-06-17T00:00:00.000Z,240-508-6303,2017-06-20T15:10:38.000Z,WASHINGTON,DC,3821 14TH STREET NW,38.9381118895,-77.0324049645,397190.57,141136.54,20011,225230,68554,68554,4,ANC 4C,4C05,POLICE - FOURTH,Poli,18,NONE,NONE,NONE,NONE
-77.032407260471814,38.938119683165525,18212668,363653,CANCELLED,General Business Licenses,400312900300,"Austin Royster Funeral Home; Charles Royster",2012-04-01T00:00:00.000Z,2014-03-31T00:00:00.000Z,2014-06-17T00:00:00.000Z,240-508-6303,2017-06-20T15:10:38.000Z,WASHINGTON,DC,3821 14TH STREET NW,38.9381118895,-77.0324049645,397190.57,141136.54,20011,225230,68554,68554,4,ANC 4C,4C05,POLICE - FOURTH,Poli,18,NONE,NONE,NONE,NONE
-77.013924790750579,38.96978498068647,18212712,362791,CANCELLED,Solid Waste Vehicle,66002045,URBAN SERVICE SYSTEMS CORPORATION,2012-03-01T00:00:00.000Z,2014-02-28T00:00:00.000Z,2014-01-31T00:00:00.000Z,2022437322,2017-06-20T15:10:38.000Z,WASHINGTON,DC,212 VAN BUREN STREET NW,38.9697775132,-77.0139224987,398793.49,144651.27,20012,245457,88390,88390,4,4B,4B07,FOURTH,406,19,NONE,NONE,NONE,NONE
-77.045684601498024,38.91961712596698,18212724,363540,CANCELLED,General Business Licenses,400311005473,,2013-09-01T00:00:00.000Z,2015-08-31T00:00:00.000Z,2014-04-08T00:00:00.000Z,4124141843,2017-06-20T15:10:38.000Z,WASHINGTON,DC,1915 KALORAMA ROAD NW,38.9196096698,-77.0456823027,396038.43,139083.09,20009,235173,78153,78153,1,1C,1C02,THIRD,303,1,NONE,NONE,NONE,NONE
-77.032407260471814,38.938119683165525,18212735,363653,CANCELLED,General Business Licenses,400312900300,"Austin Royster Funeral Home; Charles Royster",2012-04-01T00:00:00.000Z,2014-03-31T00:00:00.000Z,2014-06-17T00:00:00.000Z,240-508-6303,2017-06-20T15:10:38.000Z,WASHINGTON,DC,3821 14TH STREET NW,38.9381118895,-77.0324049645,397190.57,141136.54,20011,225230,68554,68554,4,ANC 4C,4C05,POLICE - FOURTH,Poli,18,NONE,NONE,NONE,NONE
-77.032407260471814,38.938119683165525,18212736,363653,CANCELLED,General Business Licenses,400312900300,"Austin Royster Funeral Home; Charles Royster",2012-04-01T00:00:00.000Z,2014-03-31T00:00:00.000Z,2014-06-17T00:00:00.000Z,240-508-6303,2017-06-20T15:10:38.000Z,WASHINGTON,DC,3821 14TH STREET NW,38.9381118895,-77.0324049645,397190.57,141136.54,20011,225230,68554,68554,4,ANC 4C,4C05,POLICE - FOURTH,Poli,18,NONE,NONE,NONE,NONE
-77.032407260471814,38.938119683165525,18212737,363653,CANCELLED,General Business Licenses,400312900300,"Austin Royster Funeral Home; Charles Royster",2012-04-01T00:00:00.000Z,2014-03-31T00:00:00.000Z,2014-06-17T00:00:00.000Z,240-508-6303,2017-06-20T15:10:38.000Z,WASHINGTON,DC,3821 14TH STREET NW,38.9381118895,-77.0324049645,397190.57,141136.54,20011,225230,68554,68554,4,ANC 4C,4C05,POLICE - FOURTH,Poli,18,NONE,NONE,NONE,NONE
-77.032407260471814,38.938119683165525,18212738,363653,CANCELLED,General Business Licenses,400312900300,"Austin Royster Funeral Home; Charles Royster",2012-04-01T00:00:00.000Z,2014-03-31T00:00:00.000Z,2014-06-17T00:00:00.000Z,240-508-6303,2017-06-20T15:10:38.000Z,WASHINGTON,DC,3821 14TH STREET NW,38.9381118895,-77.0324049645,397190.57,141136.54,20011,225230,68554,68554,4,ANC 4C,4C05,POLICE - FOURTH,Poli,18,NONE,NONE,NONE,NONE
-77.032407260471814,38.938119683165525,18212739,363653,CANCELLED,General Business Licenses,400312900300,"Austin Royster Funeral Home; Charles Royster",2012-04-01T00:00:00.000Z,2014-03-31T00:00:00.000Z,2014-06-17T00:00:00.000Z,240-508-6303,2017-06-20T15:10:38.000Z,WASHINGTON,DC,3821 14TH STREET NW,38.9381118895,-77.0324049645,397190.57,141136.54,20011,225230,68554,68554,4,ANC 4C,4C05,POLICE - FOURTH,Poli,18,NONE,NONE,NONE,NONE
-77.032407260471814,38.938119683165525,18212740,363653,CANCELLED,General Business Licenses,400312900300,"Austin Royster Funeral Home; Charles Royster",2012-04-01T00:00:00.000Z,2014-03-31T00:00:00.000Z,2014-06-17T00:00:00.000Z,240-508-6303,2017-06-20T15:10:38.000Z,WASHINGTON,DC,3821 14TH STREET NW,38.9381118895,-77.0324049645,397190.57,141136.54,20011,225230,68554,68554,4,ANC 4C,4C05,POLICE - FOURTH,Poli,18,NONE,NONE,NONE,NONE
-77.032407260471814,38.938119683165525,18212741,363653,CANCELLED,General Business Licenses,400312900300,"Austin Royster Funeral Home; Charles Royster",2012-04-01T00:00:00.000Z,2014-03-31T00:00:00.000Z,2014-06-17T00:00:00.000Z,240-508-6303,2017-06-20T15:10:38.000Z,WASHINGTON,DC,3821 14TH STREET NW,38.9381118895,-77.0324049645,397190.57,141136.54,20011,225230,68554,68554,4,ANC 4C,4C05,POLICE - FOURTH,Poli,18,NONE,NONE,NONE,NONE
-77.032407260471814,38.938119683165525,18212742,363653,CANCELLED,General Business Licenses,400312900300,"Austin Royster Funeral Home; Charles Royster",2012-04-01T00:00:00.000Z,2014-03-31T00:00:00.000Z,2014-06-17T00:00:00.000Z,240-508-6303,2017-06-20T15:10:38.000Z,WASHINGTON,DC,3821 14TH STREET NW,38.9381118895,-77.0324049645,397190.57,141136.54,20011,225230,68554,68554,4,ANC 4C,4C05,POLICE - FOURTH,Poli,18,NONE,NONE,NONE,NONE
-77.032407260471814,38.938119683165525,18212743,363653,CANCELLED,General Business Licenses,400312900300,"Austin Royster Funeral Home; Charles Royster",2012-04-01T00:00:00.000Z,2014-03-31T00:00:00.000Z,2014-06-17T00:00:00.000Z,240-508-6303,2017-06-20T15:10:38.000Z,WASHINGTON,DC,3821 14TH STREET NW,38.9381118895,-77.0324049645,397190.57,141136.54,20011,225230,68554,68554,4,ANC 4C,4C05,POLICE - FOURTH,Poli,18,NONE,NONE,NONE,NONE
-77.032407260471814,38.938119683165525,18212744,363653,CANCELLED,General Business Licenses,400312900300,"Austin Royster Funeral Home; Charles Royster",2012-04-01T00:00:00.000Z,2014-03-31T00:00:00.000Z,2014-06-17T00:00:00.000Z,240-508-6303,2017-06-20T15:10:38.000Z,WASHINGTON,DC,3821 14TH STREET NW,38.9381118895,-77.0324049645,397190.57,141136.54,20011,225230,68554,68554,4,ANC 4C,4C05,POLICE - FOURTH,Poli,18,NONE,NONE,NONE,NONE
-77.032407260471814,38.938119683165525,18212745,363653,CANCELLED,General Business Licenses,400312900300,"Austin Royster Funeral Home; Charles Royster",2012-04-01T00:00:00.000Z,2014-03-31T00:00:00.000Z,2014-06-17T00:00:00.000Z,240-508-6303,2017-06-20T15:10:38.000Z,WASHINGTON,DC,3821 14TH STREET NW,38.9381118895,-77.0324049645,397190.57,141136.54,20011,225230,68554,68554,4,ANC 4C,4C05,POLICE - FOURTH,Poli,18,NONE,NONE,NONE,NONE
-77.032407260471814,38.938119683165525,18212746,363653,CANCELLED,General Business Licenses,400312900300,"Austin Royster Funeral Home; Charles Royster",2012-04-01T00:00:00.000Z,2014-03-31T00:00:00.000Z,2014-06-17T00:00:00.000Z,240-508-6303,2017-06-20T15:10:38.000Z,WASHINGTON,DC,3821 14TH STREET NW,38.9381118895,-77.0324049645,397190.57,141136.54,20011,225230,68554,68554,4,ANC 4C,4C05,POLICE - FOURTH,Poli,18,NONE,NONE,NONE,NONE
-77.032407260471814,38.938119683165525,18212747,363653,CANCELLED,General Business Licenses,400312900300,"Austin Royster Funeral Home; Charles Royster",2012-04-01T00:00:00.000Z,2014-03-31T00:00:00.000Z,2014-06-17T00:00:00.000Z,240-508-6303,2017-06-20T15:10:38.000Z,WASHINGTON,DC,3821 14TH STREET NW,38.9381118895,-77.0324049645,397190.57,141136.54,20011,225230,68554,68554,4,ANC 4C,4C05,POLICE - FOURTH,Poli,18,NONE,NONE,NONE,NONE
-77.032407260471814,38.938119683165525,18212748,363653,CANCELLED,General Business Licenses,400312900300,"Austin Royster Funeral Home; Charles Royster",2012-04-01T00:00:00.000Z,2014-03-31T00:00:00.000Z,2014-06-17T00:00:00.000Z,240-508-6303,2017-06-20T15:10:38.000Z,WASHINGTON,DC,3821 14TH STREET NW,38.9381118895,-77.0324049645,397190.57,141136.54,20011,225230,68554,68554,4,ANC 4C,4C05,POLICE - FOURTH,Poli,18,NONE,NONE,NONE,NONE
-77.032407260471814,38.938119683165525,18212749,363653,CANCELLED,General Business Licenses,400312900300,"Austin Royster Funeral Home; Charles Royster",2012-04-01T00:00:00.000Z,2014-03-31T00:00:00.000Z,2014-06-17T00:00:00.000Z,240-508-6303,2017-06-20T15:10:38.000Z,WASHINGTON,DC,3821 14TH STREET NW,38.9381118895,-77.0324049645,397190.57,141136.54,20011,225230,68554,68554,4,ANC 4C,4C05,POLICE - FOURTH,Poli,18,NONE,NONE,NONE,NONE
-77.032407260471814,38.938119683165525,18212750,363653,CANCELLED,General Business Licenses,400312900300,"Austin Royster Funeral Home; Charles Royster",2012-04-01T00:00:00.000Z,2014-03-31T00:00:00.000Z,2014-06-17T00:00:00.000Z,240-508-6303,2017-06-20T15:10:38.000Z,WASHINGTON,DC,3821 14TH STREET NW,38.9381118895,-77.0324049645,397190.57,141136.54,20011,225230,68554,68554,4,ANC 4C,4C05,POLICE - FOURTH,Poli,18,NONE,NONE,NONE,NONE
-77.032407260471814,38.938119683165525,18212751,363653,CANCELLED,General Business Licenses,400312900300,"Austin Royster Funeral Home; Charles Royster",2012-04-01T00:00:00.000Z,2014-03-31T00:00:00.000Z,2014-06-17T00:00:00.000Z,240-508-6303,2017-06-20T15:10:38.000Z,WASHINGTON,DC,3821 14TH STREET NW,38.9381118895,-77.0324049645,397190.57,141136.54,20011,225230,68554,68554,4,ANC 4C,4C05,POLICE - FOURTH,Poli,18,NONE,NONE,NONE,NONE
-77.032407260471814,38.938119683165525,18212752,363653,CANCELLED,General Business Licenses,400312900300,"Austin Royster Funeral Home; Charles Royster",2012-04-01T00:00:00.000Z,2014-03-31T00:00:00.000Z,2014-06-17T00:00:00.000Z,240-508-6303,2017-06-20T15:10:38.000Z,WASHINGTON,DC,3821 14TH STREET NW,38.9381118895,-77.0324049645,397190.57,141136.54,20011,225230,68554,68554,4,ANC 4C,4C05,POLICE - FOURTH,Poli,18,NONE,NONE,NONE,NONE
-77.032407260471814,38.938119683165525,18212753,363653,CANCELLED,General Business Licenses,400312900300,"Austin Royster Funeral Home; Charles Royster",2012-04-01T00:00:00.000Z,2014-03-31T00:00:00.000Z,2014-06-17T00:00:00.000Z,240-508-6303,2017-06-20T15:10:38.000Z,WASHINGTON,DC,3821 14TH STREET NW,38.9381118895,-77.0324049645,397190.57,141136.54,20011,225230,68554,68554,4,ANC 4C,4C05,POLICE - FOURTH,Poli,18,NONE,NONE,NONE,NONE
-77.032407260471814,38.938119683165525,18212754,363653,CANCELLED,General Business Licenses,400312900300,"Austin Royster Funeral Home; Charles Royster",2012-04-01T00:00:00.000Z,2014-03-31T00:00:00.000Z,2014-06-17T00:00:00.000Z,240-508-6303,2017-06-20T15:10:38.000Z,WASHINGTON,DC,3821 14TH STREET NW,38.9381118895,-77.0324049645,397190.57,141136.54,20011,225230,68554,68554,4,ANC 4C,4C05,POLICE - FOURTH,Poli,18,NONE,NONE,NONE,NONE
-77.032407260471814,38.938119683165525,18212755,363653,CANCELLED,General Business Licenses,400312900300,"Austin Royster Funeral Home; Charles Royster",2012-04-01T00:00:00.000Z,2014-03-31T00:00:00.000Z,2014-06-17T00:00:00.000Z,240-508-6303,2017-06-20T15:10:38.000Z,WASHINGTON,DC,3821 14TH STREET NW,38.9381118895,-77.0324049645,397190.57,141136.54,20011,225230,68554,68554,4,ANC 4C,4C05,POLICE - FOURTH,Poli,18,NONE,NONE,NONE,NONE
-77.032407260471814,38.938119683165525,18212756,363653,CANCELLED,General Business Licenses,400312900300,"Austin Royster Funeral Home; Charles Royster",2012-04-01T00:00:00.000Z,2014-03-31T00:00:00.000Z,2014-06-17T00:00:00.000Z,240-508-6303,2017-06-20T15:10:38.000Z,WASHINGTON,DC,3821 14TH STREET NW,38.9381118895,-77.0324049645,397190.57,141136.54,20011,225230,68554,68554,4,ANC 4C,4C05,POLICE - FOURTH,Poli,18,NONE,NONE,NONE,NONE
-77.032407260471814,38.938119683165525,18212757,363653,CANCELLED,General Business Licenses,400312900300,"Austin Royster Funeral Home; Charles Royster",2012-04-01T00:00:00.000Z,2014-03-31T00:00:00.000Z,2014-06-17T00:00:00.000Z,240-508-6303,2017-06-20T15:10:38.000Z,WASHINGTON,DC,3821 14TH STREET NW,38.9381118895,-77.0324049645,397190.57,141136.54,20011,225230,68554,68554,4,ANC 4C,4C05,POLICE - FOURTH,Poli,18,NONE,NONE,NONE,NONE
-77.032407260471814,38.938119683165525,18212758,363653,CANCELLED,General Business Licenses,400312900300,"Austin Royster Funeral Home; Charles Royster",2012-04-01T00:00:00.000Z,2014-03-31T00:00:00.000Z,2014-06-17T00:00:00.000Z,240-508-6303,2017-06-20T15:10:38.000Z,WASHINGTON,DC,3821 14TH STREET NW,38.9381118895,-77.0324049645,397190.57,141136.54,20011,225230,68554,68554,4,ANC 4C,4C05,POLICE - FOURTH,Poli,18,NONE,NONE,NONE,NONE
-76.97068373156182,38.920028565582641,18212770,362232,CANCELLED,Gasoline Dealer,301113000008,KANWAL INC,2012-12-01T00:00:00.000Z,2014-11-30T00:00:00.000Z,2014-09-16T00:00:00.000Z,3016051500,2017-06-20T15:10:37.000Z,WASHINGTON,DC,2210 BLADENSBURG ROAD NE,38.9200211065,-76.9706814558,402542.49,139128.18,20018,50359,321,321,5,5B,5B09,FIFTH,503,22,NONE,NONE,NONE,NONE
-76.992904831503196,38.935974761126907,18212771,362233,CANCELLED,Gasoline Dealer,301113000030,BARBICON CORPORATION,2013-08-01T00:00:00.000Z,2015-07-31T00:00:00.000Z,2014-12-05T00:00:00.000Z,2028825151,2017-06-20T15:10:37.000Z,WASHINGTON,DC,1020 MICHIGAN AVENUE NE,38.9359672997,-76.9929025479,400615.35,140897.96,20017,75356,48842,48842,5,5A,5A06,FIFTH,504,20,NONE,NONE,NONE,NONE
-77.026106855065208,38.982236593258904,18212772,362234,CANCELLED,Gasoline Dealer,301114000002,GEORGIA AVE BP,2014-02-01T00:00:00.000Z,2016-01-31T00:00:00.000Z,2014-10-01T00:00:00.000Z,2404980665,2017-06-20T15:10:37.000Z,WASHINGTON,DC,7605 GEORGIA AVENUE NW,38.9822291238,-77.0261045585,397738.2,146033.75,20012,253716,96900,96900,4,4B,4B01,FOURTH,401,17,NONE,NONE,NONE,NONE
-76.983412781707457,38.866639893015616,18212822,362820,CANCELLED,Solid Waste Vehicle,68002139,F & L CONSTRUCTION INC,2014-04-01T00:00:00.000Z,2016-03-31T00:00:00.000Z,2014-04-30T00:00:00.000Z,2022867234,2017-06-20T15:10:38.000Z,WASHINGTON,DC,1512 GOOD HOPE ROAD SE,38.8666324452,-76.9834105053,401439.71,133201.34,20020,61989,37763,37763,8,7B,7B01,SEVENTH,701,34,NONE,NONE,NONE,NONE
-77.032407260471814,38.938119683165525,18212825,363653,CANCELLED,General Business Licenses,400312900300,"Austin Royster Funeral Home; Charles Royster",2012-04-01T00:00:00.000Z,2014-03-31T00:00:00.000Z,2014-06-17T00:00:00.000Z,240-508-6303,2017-06-20T15:10:38.000Z,WASHINGTON,DC,3821 14TH STREET NW,38.9381118895,-77.0324049645,397190.57,141136.54,20011,225230,68554,68554,4,ANC 4C,4C05,POLICE - FOURTH,Poli,18,NONE,NONE,NONE,NONE
-77.032407260471814,38.938119683165525,18212826,363653,CANCELLED,General Business Licenses,400312900300,"Austin Royster Funeral Home; Charles Royster",2012-04-01T00:00:00.000Z,2014-03-31T00:00:00.000Z,2014-06-17T00:00:00.000Z,240-508-6303,2017-06-20T15:10:38.000Z,WASHINGTON,DC,3821 14TH STREET NW,38.9381118895,-77.0324049645,397190.57,141136.54,20011,225230,68554,68554,4,ANC 4C,4C05,POLICE - FOURTH,Poli,18,NONE,NONE,NONE,NONE
-77.032407260471814,38.938119683165525,18212827,363653,CANCELLED,General Business Licenses,400312900300,"Austin Royster Funeral Home; Charles Royster",2012-04-01T00:00:00.000Z,2014-03-31T00:00:00.000Z,2014-06-17T00:00:00.000Z,240-508-6303,2017-06-20T15:10:38.000Z,WASHINGTON,DC,3821 14TH STREET NW,38.9381118895,-77.0324049645,397190.57,141136.54,20011,225230,68554,68554,4,ANC 4C,4C05,POLICE - FOURTH,Poli,18,NONE,NONE,NONE,NONE
-77.032407260471814,38.938119683165525,18212828,363653,CANCELLED,General Business Licenses,400312900300,"Austin Royster Funeral Home; Charles Royster",2012-04-01T00:00:00.000Z,2014-03-31T00:00:00.000Z,2014-06-17T00:00:00.000Z,240-508-6303,2017-06-20T15:10:38.000Z,WASHINGTON,DC,3821 14TH STREET NW,38.9381118895,-77.0324049645,397190.57,141136.54,20011,225230,68554,68554,4,ANC 4C,4C05,POLICE - FOURTH,Poli,18,NONE,NONE,NONE,NONE
-77.032407260471814,38.938119683165525,18212829,363653,CANCELLED,General Business Licenses,400312900300,"Austin Royster Funeral Home; Charles Royster",2012-04-01T00:00:00.000Z,2014-03-31T00:00:00.000Z,2014-06-17T00:00:00.000Z,240-508-6303,2017-06-20T15:10:38.000Z,WASHINGTON,DC,3821 14TH STREET NW,38.9381118895,-77.0324049645,397190.57,141136.54,20011,225230,68554,68554,4,ANC 4C,4C05,POLICE - FOURTH,Poli,18,NONE,NONE,NONE,NONE
-77.032407260471814,38.938119683165525,18212830,363653,CANCELLED,General Business Licenses,400312900300,"Austin Royster Funeral Home; Charles Royster",2012-04-01T00:00:00.000Z,2014-03-31T00:00:00.000Z,2014-06-17T00:00:00.000Z,240-508-6303,2017-06-20T15:10:38.000Z,WASHINGTON,DC,3821 14TH STREET NW,38.9381118895,-77.0324049645,397190.57,141136.54,20011,225230,68554,68554,4,ANC 4C,4C05,POLICE - FOURTH,Poli,18,NONE,NONE,NONE,NONE
-77.032407260471814,38.938119683165525,18212831,363653,CANCELLED,General Business Licenses,400312900300,"Austin Royster Funeral Home; Charles Royster",2012-04-01T00:00:00.000Z,2014-03-31T00:00:00.000Z,2014-06-17T00:00:00.000Z,240-508-6303,2017-06-20T15:10:38.000Z,WASHINGTON,DC,3821 14TH STREET NW,38.9381118895,-77.0324049645,397190.57,141136.54,20011,225230,68554,68554,4,ANC 4C,4C05,POLICE - FOURTH,Poli,18,NONE,NONE,NONE,NONE
-77.032407260471814,38.938119683165525,18212832,363653,CANCELLED,General Business Licenses,400312900300,"Austin Royster Funeral Home; Charles Royster",2012-04-01T00:00:00.000Z,2014-03-31T00:00:00.000Z,2014-06-17T00:00:00.000Z,240-508-6303,2017-06-20T15:10:38.000Z,WASHINGTON,DC,3821 14TH STREET NW,38.9381118895,-77.0324049645,397190.57,141136.54,20011,225230,68554,68554,4,ANC 4C,4C05,POLICE - FOURTH,Poli,18,NONE,NONE,NONE,NONE
-77.032407260471814,38.938119683165525,18212833,363653,CANCELLED,General Business Licenses,400312900300,"Austin Royster Funeral Home; Charles Royster",2012-04-01T00:00:00.000Z,2014-03-31T00:00:00.000Z,2014-06-17T00:00:00.000Z,240-508-6303,2017-06-20T15:10:38.000Z,WASHINGTON,DC,3821 14TH STREET NW,38.9381118895,-77.0324049645,397190.57,141136.54,20011,225230,68554,68554,4,ANC 4C,4C05,POLICE - FOURTH,Poli,18,NONE,NONE,NONE,NONE
-77.032407260471814,38.938119683165525,18212834,363653,CANCELLED,General Business Licenses,400312900300,"Austin Royster Funeral Home; Charles Royster",2012-04-01T00:00:00.000Z,2014-03-31T00:00:00.000Z,2014-06-17T00:00:00.000Z,240-508-6303,2017-06-20T15:10:38.000Z,WASHINGTON,DC,3821 14TH STREET NW,38.9381118895,-77.0324049645,397190.57,141136.54,20011,225230,68554,68554,4,ANC 4C,4C05,POLICE - FOURTH,Poli,18,NONE,NONE,NONE,NONE
-77.032407260471814,38.938119683165525,18212835,363653,CANCELLED,General Business Licenses,400312900300,"Austin Royster Funeral Home; Charles Royster",2012-04-01T00:00:00.000Z,2014-03-31T00:00:00.000Z,2014-06-17T00:00:00.000Z,240-508-6303,2017-06-20T15:10:38.000Z,WASHINGTON,DC,3821 14TH STREET NW,38.9381118895,-77.0324049645,397190.57,141136.54,20011,225230,68554,68554,4,ANC 4C,4C05,POLICE - FOURTH,Poli,18,NONE,NONE,NONE,NONE
